{"type":"FeatureCollection","features":[{"type": "Feature", "geometry": {"type": "Point", "coordinates": [-123.81923, 46.972965]}, "properties": {"city": "Aberdeen", "zip": "98520", "dst": 1, "geopoint": [46.972965, -123.81923], "longitude": -123.81923, "state": "WA", "latitude": 46.972965, "timezone": -8}},{"type": "Feature", "geometry": {"type": "Point", "coordinates": [-123.08647, 46.814438]}, "properties": {"city": "Rochester", "zip": "98579", "dst": 1, "geopoint": [46.814438, -123.08647], "longitude": -123.08647, "state": "WA", "latitude": 46.814438, "timezone": -8}},{"type": "Feature", "geometry": {"type": "Point", "coordinates": [-122.51789, 45.791345]}, "properties": {"city": "Battle Ground", "zip": "98604", "dst": 1, "geopoint": [45.791345, -122.51789], "longitude": -122.51789, "state": "WA", "latitude": 45.791345, "timezone": -8}},{"type": "Feature", "geometry": {"type": "Point", "coordinates": [-122.30081, 47.58577]}, "properties": {"city": "Seattle", "zip": "98144", "dst": 1, "geopoint": [47.58577, -122.30081], "longitude": -122.30081, "state": "WA", "latitude": 47.58577, "timezone": -8}},{"type": "Feature", "geometry": {"type": "Point", "coordinates": [-120.47681, 48.634796]}, "properties": {"city": "Mazama", "zip": "98833", "dst": 1, "geopoint": [48.634796, -120.47681], "longitude": -120.47681, "state": "WA", "latitude": 48.634796, "timezone": -8}},{"type": "Feature", "geometry": {"type": "Point", "coordinates": [-124.25814, 47.32251]}, "properties": {"city": "Taholah", "zip": "98587", "dst": 1, "geopoint": [47.32251, -124.25814], "longitude": -124.25814, "state": "WA", "latitude": 47.32251, "timezone": -8}},{"type": "Feature", "geometry": {"type": "Point", "coordinates": [-121.97167, 45.650041]}, "properties": {"city": "North Bonneville", "zip": "98639", "dst": 1, "geopoint": [45.650041, -121.97167], "longitude": -121.97167, "state": "WA", "latitude": 45.650041, "timezone": -8}},{"type": "Feature", "geometry": {"type": "Point", "coordinates": [-122.520347, 45.801586]}, "properties": {"city": "Heisson", "zip": "98622", "dst": 1, "geopoint": [45.801586, -122.520347], "longitude": -122.520347, "state": "WA", "latitude": 45.801586, "timezone": -8}},{"type": "Feature", "geometry": {"type": "Point", "coordinates": [-118.95248, 47.998468]}, "properties": {"city": "Elmer City", "zip": "99124", "dst": 1, "geopoint": [47.998468, -118.95248], "longitude": -118.95248, "state": "WA", "latitude": 47.998468, "timezone": -8}},{"type": "Feature", "geometry": {"type": "Point", "coordinates": [-120.1843, 46.345166]}, "properties": {"city": "Granger", "zip": "98932", "dst": 1, "geopoint": [46.345166, -120.1843], "longitude": -120.1843, "state": "WA", "latitude": 46.345166, "timezone": -8}},{"type": "Feature", "geometry": {"type": "Point", "coordinates": [-122.66712, 45.681271]}, "properties": {"city": "Vancouver", "zip": "98665", "dst": 1, "geopoint": [45.681271, -122.66712], "longitude": -122.66712, "state": "WA", "latitude": 45.681271, "timezone": -8}},{"type": "Feature", "geometry": {"type": "Point", "coordinates": [-122.520347, 45.801586]}, "properties": {"city": "Vancouver", "zip": "98666", "dst": 1, "geopoint": [45.801586, -122.520347], "longitude": -122.520347, "state": "WA", "latitude": 45.801586, "timezone": -8}},{"type": "Feature", "geometry": {"type": "Point", "coordinates": [-124.41188, 48.181608]}, "properties": {"city": "Clallam Bay", "zip": "98326", "dst": 1, "geopoint": [48.181608, -124.41188], "longitude": -124.41188, "state": "WA", "latitude": 48.181608, "timezone": -8}},{"type": "Feature", "geometry": {"type": "Point", "coordinates": [-122.40517, 47.077796]}, "properties": {"city": "Spanaway", "zip": "98387", "dst": 1, "geopoint": [47.077796, -122.40517], "longitude": -122.40517, "state": "WA", "latitude": 47.077796, "timezone": -8}},{"type": "Feature", "geometry": {"type": "Point", "coordinates": [-122.48668, 46.50494]}, "properties": {"city": "Mossyrock", "zip": "98564", "dst": 1, "geopoint": [46.50494, -122.48668], "longitude": -122.48668, "state": "WA", "latitude": 46.50494, "timezone": -8}},{"type": "Feature", "geometry": {"type": "Point", "coordinates": [-119.16369, 46.210957]}, "properties": {"city": "Kennewick", "zip": "99336", "dst": 1, "geopoint": [46.210957, -119.16369], "longitude": -119.16369, "state": "WA", "latitude": 46.210957, "timezone": -8}},{"type": "Feature", "geometry": {"type": "Point", "coordinates": [-121.682271, 48.037258]}, "properties": {"city": "Lynnwood", "zip": "98046", "dst": 1, "geopoint": [48.037258, -121.682271], "longitude": -121.682271, "state": "WA", "latitude": 48.037258, "timezone": -8}},{"type": "Feature", "geometry": {"type": "Point", "coordinates": [-121.91332, 45.669604]}, "properties": {"city": "Stevenson", "zip": "98648", "dst": 1, "geopoint": [45.669604, -121.91332], "longitude": -121.91332, "state": "WA", "latitude": 45.669604, "timezone": -8}},{"type": "Feature", "geometry": {"type": "Point", "coordinates": [-123.05308, 46.373347]}, "properties": {"city": "Ryderwood", "zip": "98581", "dst": 1, "geopoint": [46.373347, -123.05308], "longitude": -123.05308, "state": "WA", "latitude": 46.373347, "timezone": -8}},{"type": "Feature", "geometry": {"type": "Point", "coordinates": [-123.43097, 47.26332]}, "properties": {"city": "Matlock", "zip": "98560", "dst": 1, "geopoint": [47.26332, -123.43097], "longitude": -123.43097, "state": "WA", "latitude": 47.26332, "timezone": -8}},{"type": "Feature", "geometry": {"type": "Point", "coordinates": [-122.34461, 47.733852]}, "properties": {"city": "Seattle", "zip": "98133", "dst": 1, "geopoint": [47.733852, -122.34461], "longitude": -122.34461, "state": "WA", "latitude": 47.733852, "timezone": -8}},{"type": "Feature", "geometry": {"type": "Point", "coordinates": [-120.96163, 45.722786]}, "properties": {"city": "Centerville", "zip": "98613", "dst": 1, "geopoint": [45.722786, -120.96163], "longitude": -120.96163, "state": "WA", "latitude": 45.722786, "timezone": -8}},{"type": "Feature", "geometry": {"type": "Point", "coordinates": [-118.49343, 47.757764]}, "properties": {"city": "Creston", "zip": "99117", "dst": 1, "geopoint": [47.757764, -118.49343], "longitude": -118.49343, "state": "WA", "latitude": 47.757764, "timezone": -8}},{"type": "Feature", "geometry": {"type": "Point", "coordinates": [-118.64475, 48.890892]}, "properties": {"city": "Curlew", "zip": "99118", "dst": 1, "geopoint": [48.890892, -118.64475], "longitude": -118.64475, "state": "WA", "latitude": 48.890892, "timezone": -8}},{"type": "Feature", "geometry": {"type": "Point", "coordinates": [-122.33523, 47.604718]}, "properties": {"city": "Seattle", "zip": "98174", "dst": 1, "geopoint": [47.604718, -122.33523], "longitude": -122.33523, "state": "WA", "latitude": 47.604718, "timezone": -8}},{"type": "Feature", "geometry": {"type": "Point", "coordinates": [-119.860117, 47.079243]}, "properties": {"city": "George", "zip": "98824", "dst": 1, "geopoint": [47.079243, -119.860117], "longitude": -119.860117, "state": "WA", "latitude": 47.079243, "timezone": -8}},{"type": "Feature", "geometry": {"type": "Point", "coordinates": [-121.803388, 47.432251]}, "properties": {"city": "Seattle", "zip": "98145", "dst": 1, "geopoint": [47.432251, -121.803388], "longitude": -121.803388, "state": "WA", "latitude": 47.432251, "timezone": -8}},{"type": "Feature", "geometry": {"type": "Point", "coordinates": [-120.56997, 46.726395]}, "properties": {"city": "Selah", "zip": "98942", "dst": 1, "geopoint": [46.726395, -120.56997], "longitude": -120.56997, "state": "WA", "latitude": 46.726395, "timezone": -8}},{"type": "Feature", "geometry": {"type": "Point", "coordinates": [-117.41047, 47.117965]}, "properties": {"city": "Thornton", "zip": "99176", "dst": 1, "geopoint": [47.117965, -117.41047], "longitude": -117.41047, "state": "WA", "latitude": 47.117965, "timezone": -8}},{"type": "Feature", "geometry": {"type": "Point", "coordinates": [-122.284785, 47.859918]}, "properties": {"city": "Everett", "zip": "98206", "dst": 1, "geopoint": [47.859918, -122.284785], "longitude": -122.284785, "state": "WA", "latitude": 47.859918, "timezone": -8}},{"type": "Feature", "geometry": {"type": "Point", "coordinates": [-118.2897, 48.92816]}, "properties": {"city": "Laurier", "zip": "99146", "dst": 1, "geopoint": [48.92816, -118.2897], "longitude": -118.2897, "state": "WA", "latitude": 48.92816, "timezone": -8}},{"type": "Feature", "geometry": {"type": "Point", "coordinates": [-119.901931, 46.731046]}, "properties": {"city": "Mattawa", "zip": "99309", "dst": 1, "geopoint": [46.731046, -119.901931], "longitude": -119.901931, "state": "WA", "latitude": 46.731046, "timezone": -8}},{"type": "Feature", "geometry": {"type": "Point", "coordinates": [-122.30118, 47.66377]}, "properties": {"city": "Seattle", "zip": "98105", "dst": 1, "geopoint": [47.66377, -122.30118], "longitude": -122.30118, "state": "WA", "latitude": 47.66377, "timezone": -8}},{"type": "Feature", "geometry": {"type": "Point", "coordinates": [-122.66658, 48.699642]}, "properties": {"city": "Lummi Island", "zip": "98262", "dst": 1, "geopoint": [48.699642, -122.66658], "longitude": -122.66658, "state": "WA", "latitude": 48.699642, "timezone": -8}},{"type": "Feature", "geometry": {"type": "Point", "coordinates": [-122.31577, 47.196272]}, "properties": {"city": "Puyallup", "zip": "98371", "dst": 1, "geopoint": [47.196272, -122.31577], "longitude": -122.31577, "state": "WA", "latitude": 47.196272, "timezone": -8}},{"type": "Feature", "geometry": {"type": "Point", "coordinates": [-122.80083, 46.433226]}, "properties": {"city": "Toledo", "zip": "98591", "dst": 1, "geopoint": [46.433226, -122.80083], "longitude": -122.80083, "state": "WA", "latitude": 46.433226, "timezone": -8}},{"type": "Feature", "geometry": {"type": "Point", "coordinates": [-117.38829, 47.693741]}, "properties": {"city": "Spokane", "zip": "99207", "dst": 1, "geopoint": [47.693741, -117.38829], "longitude": -117.38829, "state": "WA", "latitude": 47.693741, "timezone": -8}},{"type": "Feature", "geometry": {"type": "Point", "coordinates": [-119.8857, 46.726526]}, "properties": {"city": "Mattawa", "zip": "99349", "dst": 1, "geopoint": [46.726526, -119.8857], "longitude": -119.8857, "state": "WA", "latitude": 46.726526, "timezone": -8}},{"type": "Feature", "geometry": {"type": "Point", "coordinates": [-122.28112, 45.594465]}, "properties": {"city": "Washougal", "zip": "98671", "dst": 1, "geopoint": [45.594465, -122.28112], "longitude": -122.28112, "state": "WA", "latitude": 45.594465, "timezone": -8}},{"type": "Feature", "geometry": {"type": "Point", "coordinates": [-122.48209, 48.185511]}, "properties": {"city": "Camano", "zip": "98282", "dst": 1, "geopoint": [48.185511, -122.48209], "longitude": -122.48209, "state": "WA", "latitude": 48.185511, "timezone": -8}},{"type": "Feature", "geometry": {"type": "Point", "coordinates": [-122.69055, 47.667257]}, "properties": {"city": "Silverdale", "zip": "98383", "dst": 1, "geopoint": [47.667257, -122.69055], "longitude": -122.69055, "state": "WA", "latitude": 47.667257, "timezone": -8}},{"type": "Feature", "geometry": {"type": "Point", "coordinates": [-121.803388, 47.432251]}, "properties": {"city": "Redmond", "zip": "98073", "dst": 1, "geopoint": [47.432251, -121.803388], "longitude": -121.803388, "state": "WA", "latitude": 47.432251, "timezone": -8}},{"type": "Feature", "geometry": {"type": "Point", "coordinates": [-122.19702, 47.71828]}, "properties": {"city": "Kirkland", "zip": "98034", "dst": 1, "geopoint": [47.71828, -122.19702], "longitude": -122.19702, "state": "WA", "latitude": 47.71828, "timezone": -8}},{"type": "Feature", "geometry": {"type": "Point", "coordinates": [-122.71309, 47.720777]}, "properties": {"city": "Silverdale", "zip": "98315", "dst": 1, "geopoint": [47.720777, -122.71309], "longitude": -122.71309, "state": "WA", "latitude": 47.720777, "timezone": -8}},{"type": "Feature", "geometry": {"type": "Point", "coordinates": [-121.47523, 45.786727]}, "properties": {"city": "White Salmon", "zip": "98672", "dst": 1, "geopoint": [45.786727, -121.47523], "longitude": -121.47523, "state": "WA", "latitude": 45.786727, "timezone": -8}},{"type": "Feature", "geometry": {"type": "Point", "coordinates": [-117.644337, 46.838747]}, "properties": {"city": "Pullman", "zip": "99165", "dst": 1, "geopoint": [46.838747, -117.644337], "longitude": -117.644337, "state": "WA", "latitude": 46.838747, "timezone": -8}},{"type": "Feature", "geometry": {"type": "Point", "coordinates": [-119.08897, 47.641983]}, "properties": {"city": "Hartline", "zip": "99135", "dst": 1, "geopoint": [47.641983, -119.08897], "longitude": -119.08897, "state": "WA", "latitude": 47.641983, "timezone": -8}},{"type": "Feature", "geometry": {"type": "Point", "coordinates": [-118.2979, 48.207661]}, "properties": {"city": "Inchelium", "zip": "99138", "dst": 1, "geopoint": [48.207661, -118.2979], "longitude": -118.2979, "state": "WA", "latitude": 48.207661, "timezone": -8}},{"type": "Feature", "geometry": {"type": "Point", "coordinates": [-122.56719, 46.893352]}, "properties": {"city": "Yelm", "zip": "98597", "dst": 1, "geopoint": [46.893352, -122.56719], "longitude": -122.56719, "state": "WA", "latitude": 46.893352, "timezone": -8}},{"type": "Feature", "geometry": {"type": "Point", "coordinates": [-118.829153, 46.828931]}, "properties": {"city": "Cunningham", "zip": "99327", "dst": 1, "geopoint": [46.828931, -118.829153], "longitude": -118.829153, "state": "WA", "latitude": 46.828931, "timezone": -8}},{"type": "Feature", "geometry": {"type": "Point", "coordinates": [-120.41354, 47.481133]}, "properties": {"city": "Monitor", "zip": "98836", "dst": 1, "geopoint": [47.481133, -120.41354], "longitude": -120.41354, "state": "WA", "latitude": 47.481133, "timezone": -8}},{"type": "Feature", "geometry": {"type": "Point", "coordinates": [-122.38803, 47.538887]}, "properties": {"city": "Seattle", "zip": "98136", "dst": 1, "geopoint": [47.538887, -122.38803], "longitude": -122.38803, "state": "WA", "latitude": 47.538887, "timezone": -8}},{"type": "Feature", "geometry": {"type": "Point", "coordinates": [-122.113223, 47.066193]}, "properties": {"city": "Tacoma", "zip": "98431", "dst": 1, "geopoint": [47.066193, -122.113223], "longitude": -122.113223, "state": "WA", "latitude": 47.066193, "timezone": -8}},{"type": "Feature", "geometry": {"type": "Point", "coordinates": [-121.61674, 46.580048]}, "properties": {"city": "Packwood", "zip": "98361", "dst": 1, "geopoint": [46.580048, -121.61674], "longitude": -121.61674, "state": "WA", "latitude": 46.580048, "timezone": -8}},{"type": "Feature", "geometry": {"type": "Point", "coordinates": [-117.644337, 46.838747]}, "properties": {"city": "Steptoe", "zip": "99174", "dst": 1, "geopoint": [46.838747, -117.644337], "longitude": -117.644337, "state": "WA", "latitude": 46.838747, "timezone": -8}},{"type": "Feature", "geometry": {"type": "Point", "coordinates": [-122.87249, 47.069339]}, "properties": {"city": "Olympia", "zip": "98506", "dst": 1, "geopoint": [47.069339, -122.87249], "longitude": -122.87249, "state": "WA", "latitude": 47.069339, "timezone": -8}},{"type": "Feature", "geometry": {"type": "Point", "coordinates": [-117.08628, 47.656171]}, "properties": {"city": "Liberty Lake", "zip": "99019", "dst": 1, "geopoint": [47.656171, -117.08628], "longitude": -117.08628, "state": "WA", "latitude": 47.656171, "timezone": -8}},{"type": "Feature", "geometry": {"type": "Point", "coordinates": [-122.24736, 47.75287]}, "properties": {"city": "Kenmore", "zip": "98028", "dst": 1, "geopoint": [47.75287, -122.24736], "longitude": -122.24736, "state": "WA", "latitude": 47.75287, "timezone": -8}},{"type": "Feature", "geometry": {"type": "Point", "coordinates": [-122.39835, 47.296007]}, "properties": {"city": "Tacoma", "zip": "98422", "dst": 1, "geopoint": [47.296007, -122.39835], "longitude": -122.39835, "state": "WA", "latitude": 47.296007, "timezone": -8}},{"type": "Feature", "geometry": {"type": "Point", "coordinates": [-120.41782, 46.984565]}, "properties": {"city": "Kittitas", "zip": "98934", "dst": 1, "geopoint": [46.984565, -120.41782], "longitude": -120.41782, "state": "WA", "latitude": 46.984565, "timezone": -8}},{"type": "Feature", "geometry": {"type": "Point", "coordinates": [-121.803388, 47.432251]}, "properties": {"city": "Kirkland", "zip": "98083", "dst": 1, "geopoint": [47.432251, -121.803388], "longitude": -121.803388, "state": "WA", "latitude": 47.432251, "timezone": -8}},{"type": "Feature", "geometry": {"type": "Point", "coordinates": [-123.91732, 47.026913]}, "properties": {"city": "Hoquiam", "zip": "98550", "dst": 1, "geopoint": [47.026913, -123.91732], "longitude": -123.91732, "state": "WA", "latitude": 47.026913, "timezone": -8}},{"type": "Feature", "geometry": {"type": "Point", "coordinates": [-122.222642, 46.989916]}, "properties": {"city": "Kapowsin", "zip": "98344", "dst": 1, "geopoint": [46.989916, -122.222642], "longitude": -122.222642, "state": "WA", "latitude": 46.989916, "timezone": -8}},{"type": "Feature", "geometry": {"type": "Point", "coordinates": [-124.20789, 47.254009]}, "properties": {"city": "Moclips", "zip": "98562", "dst": 1, "geopoint": [47.254009, -124.20789], "longitude": -124.20789, "state": "WA", "latitude": 47.254009, "timezone": -8}},{"type": "Feature", "geometry": {"type": "Point", "coordinates": [-122.9827, 46.40521]}, "properties": {"city": "Vader", "zip": "98593", "dst": 1, "geopoint": [46.40521, -122.9827], "longitude": -122.9827, "state": "WA", "latitude": 46.40521, "timezone": -8}},{"type": "Feature", "geometry": {"type": "Point", "coordinates": [-119.98921, 47.79955]}, "properties": {"city": "Chelan Falls", "zip": "98817", "dst": 1, "geopoint": [47.79955, -119.98921], "longitude": -119.98921, "state": "WA", "latitude": 47.79955, "timezone": -8}},{"type": "Feature", "geometry": {"type": "Point", "coordinates": [-122.113223, 47.066193]}, "properties": {"city": "Tacoma", "zip": "98471", "dst": 1, "geopoint": [47.066193, -122.113223], "longitude": -122.113223, "state": "WA", "latitude": 47.066193, "timezone": -8}},{"type": "Feature", "geometry": {"type": "Point", "coordinates": [-117.4959, 47.563191]}, "properties": {"city": "Marshall", "zip": "99020", "dst": 1, "geopoint": [47.563191, -117.4959], "longitude": -117.4959, "state": "WA", "latitude": 47.563191, "timezone": -8}},{"type": "Feature", "geometry": {"type": "Point", "coordinates": [-117.25208, 46.793604]}, "properties": {"city": "Albion", "zip": "99102", "dst": 1, "geopoint": [46.793604, -117.25208], "longitude": -117.25208, "state": "WA", "latitude": 46.793604, "timezone": -8}},{"type": "Feature", "geometry": {"type": "Point", "coordinates": [-122.75285, 47.00581]}, "properties": {"city": "Olympia", "zip": "98513", "dst": 1, "geopoint": [47.00581, -122.75285], "longitude": -122.75285, "state": "WA", "latitude": 47.00581, "timezone": -8}},{"type": "Feature", "geometry": {"type": "Point", "coordinates": [-121.47838, 45.719294]}, "properties": {"city": "Bingen", "zip": "98605", "dst": 1, "geopoint": [45.719294, -121.47838], "longitude": -121.47838, "state": "WA", "latitude": 45.719294, "timezone": -8}},{"type": "Feature", "geometry": {"type": "Point", "coordinates": [-122.57159, 47.43025]}, "properties": {"city": "Olalla", "zip": "98359", "dst": 1, "geopoint": [47.43025, -122.57159], "longitude": -122.57159, "state": "WA", "latitude": 47.43025, "timezone": -8}},{"type": "Feature", "geometry": {"type": "Point", "coordinates": [-117.33776, 47.707542]}, "properties": {"city": "Spokane", "zip": "99217", "dst": 1, "geopoint": [47.707542, -117.33776], "longitude": -117.33776, "state": "WA", "latitude": 47.707542, "timezone": -8}},{"type": "Feature", "geometry": {"type": "Point", "coordinates": [-122.8326, 46.857968]}, "properties": {"city": "Tenino", "zip": "98589", "dst": 1, "geopoint": [46.857968, -122.8326], "longitude": -122.8326, "state": "WA", "latitude": 46.857968, "timezone": -8}},{"type": "Feature", "geometry": {"type": "Point", "coordinates": [-122.12138, 47.677471]}, "properties": {"city": "Redmond", "zip": "98052", "dst": 1, "geopoint": [47.677471, -122.12138], "longitude": -122.12138, "state": "WA", "latitude": 47.677471, "timezone": -8}},{"type": "Feature", "geometry": {"type": "Point", "coordinates": [-122.22021, 47.790653]}, "properties": {"city": "Bothell", "zip": "98021", "dst": 1, "geopoint": [47.790653, -122.22021], "longitude": -122.22021, "state": "WA", "latitude": 47.790653, "timezone": -8}},{"type": "Feature", "geometry": {"type": "Point", "coordinates": [-119.85868, 47.18227]}, "properties": {"city": "Quincy", "zip": "98848", "dst": 1, "geopoint": [47.18227, -119.85868], "longitude": -119.85868, "state": "WA", "latitude": 47.18227, "timezone": -8}},{"type": "Feature", "geometry": {"type": "Point", "coordinates": [-121.803388, 47.432251]}, "properties": {"city": "Seattle", "zip": "98140", "dst": 1, "geopoint": [47.432251, -121.803388], "longitude": -121.803388, "state": "WA", "latitude": 47.432251, "timezone": -8}},{"type": "Feature", "geometry": {"type": "Point", "coordinates": [-117.08313, 46.400365]}, "properties": {"city": "Clarkston", "zip": "99403", "dst": 1, "geopoint": [46.400365, -117.08313], "longitude": -117.08313, "state": "WA", "latitude": 46.400365, "timezone": -8}},{"type": "Feature", "geometry": {"type": "Point", "coordinates": [-122.113223, 47.066193]}, "properties": {"city": "Tacoma", "zip": "98415", "dst": 1, "geopoint": [47.066193, -122.113223], "longitude": -122.113223, "state": "WA", "latitude": 47.066193, "timezone": -8}},{"type": "Feature", "geometry": {"type": "Point", "coordinates": [-120.62421, 46.406875]}, "properties": {"city": "Harrah", "zip": "98933", "dst": 1, "geopoint": [46.406875, -120.62421], "longitude": -120.62421, "state": "WA", "latitude": 46.406875, "timezone": -8}},{"type": "Feature", "geometry": {"type": "Point", "coordinates": [-122.63256, 48.931679]}, "properties": {"city": "Custer", "zip": "98240", "dst": 1, "geopoint": [48.931679, -122.63256], "longitude": -122.63256, "state": "WA", "latitude": 48.931679, "timezone": -8}},{"type": "Feature", "geometry": {"type": "Point", "coordinates": [-123.95463, 46.630051]}, "properties": {"city": "Bay Center", "zip": "98527", "dst": 1, "geopoint": [46.630051, -123.95463], "longitude": -123.95463, "state": "WA", "latitude": 46.630051, "timezone": -8}},{"type": "Feature", "geometry": {"type": "Point", "coordinates": [-122.11451, 47.363382]}, "properties": {"city": "Kent", "zip": "98042", "dst": 1, "geopoint": [47.363382, -122.11451], "longitude": -122.11451, "state": "WA", "latitude": 47.363382, "timezone": -8}},{"type": "Feature", "geometry": {"type": "Point", "coordinates": [-121.28904, 46.018228]}, "properties": {"city": "Glenwood", "zip": "98619", "dst": 1, "geopoint": [46.018228, -121.28904], "longitude": -121.28904, "state": "WA", "latitude": 46.018228, "timezone": -8}},{"type": "Feature", "geometry": {"type": "Point", "coordinates": [-122.11766, 46.53619]}, "properties": {"city": "Glenoma", "zip": "98336", "dst": 1, "geopoint": [46.53619, -122.11766], "longitude": -122.11766, "state": "WA", "latitude": 46.53619, "timezone": -8}},{"type": "Feature", "geometry": {"type": "Point", "coordinates": [-122.51962, 47.807359]}, "properties": {"city": "Kingston", "zip": "98346", "dst": 1, "geopoint": [47.807359, -122.51962], "longitude": -122.51962, "state": "WA", "latitude": 47.807359, "timezone": -8}},{"type": "Feature", "geometry": {"type": "Point", "coordinates": [-117.25912, 47.646994]}, "properties": {"city": "Spokane", "zip": "99206", "dst": 1, "geopoint": [47.646994, -117.25912], "longitude": -117.25912, "state": "WA", "latitude": 47.646994, "timezone": -8}},{"type": "Feature", "geometry": {"type": "Point", "coordinates": [-121.417034, 48.558127]}, "properties": {"city": "Bow", "zip": "98246", "dst": 1, "geopoint": [48.558127, -121.417034], "longitude": -121.417034, "state": "WA", "latitude": 48.558127, "timezone": -8}},{"type": "Feature", "geometry": {"type": "Point", "coordinates": [-117.431742, 47.653568]}, "properties": {"city": "Spokane", "zip": "99211", "dst": 1, "geopoint": [47.653568, -117.431742], "longitude": -117.431742, "state": "WA", "latitude": 47.653568, "timezone": -8}},{"type": "Feature", "geometry": {"type": "Point", "coordinates": [-118.15325, 46.138753]}, "properties": {"city": "Dixie", "zip": "99329", "dst": 1, "geopoint": [46.138753, -118.15325], "longitude": -118.15325, "state": "WA", "latitude": 46.138753, "timezone": -8}},{"type": "Feature", "geometry": {"type": "Point", "coordinates": [-121.803388, 47.432251]}, "properties": {"city": "Seattle", "zip": "98160", "dst": 1, "geopoint": [47.432251, -121.803388], "longitude": -121.803388, "state": "WA", "latitude": 47.432251, "timezone": -8}},{"type": "Feature", "geometry": {"type": "Point", "coordinates": [-122.91828, 48.594255]}, "properties": {"city": "Orcas", "zip": "98280", "dst": 1, "geopoint": [48.594255, -122.91828], "longitude": -122.91828, "state": "WA", "latitude": 48.594255, "timezone": -8}},{"type": "Feature", "geometry": {"type": "Point", "coordinates": [-117.37365, 47.240334]}, "properties": {"city": "Rosalia", "zip": "99170", "dst": 1, "geopoint": [47.240334, -117.37365], "longitude": -117.37365, "state": "WA", "latitude": 47.240334, "timezone": -8}},{"type": "Feature", "geometry": {"type": "Point", "coordinates": [-117.6013, 48.102048]}, "properties": {"city": "Loon Lake", "zip": "99148", "dst": 1, "geopoint": [48.102048, -117.6013], "longitude": -117.6013, "state": "WA", "latitude": 48.102048, "timezone": -8}},{"type": "Feature", "geometry": {"type": "Point", "coordinates": [-122.702393, 46.978118]}, "properties": {"city": "Olympia", "zip": "98507", "dst": 1, "geopoint": [46.978118, -122.702393], "longitude": -122.702393, "state": "WA", "latitude": 46.978118, "timezone": -8}},{"type": "Feature", "geometry": {"type": "Point", "coordinates": [-121.76849, 47.870275]}, "properties": {"city": "Startup", "zip": "98293", "dst": 1, "geopoint": [47.870275, -121.76849], "longitude": -121.76849, "state": "WA", "latitude": 47.870275, "timezone": -8}},{"type": "Feature", "geometry": {"type": "Point", "coordinates": [-123.483596, 47.002178]}, "properties": {"city": "Satsop", "zip": "98583", "dst": 1, "geopoint": [47.002178, -123.483596], "longitude": -123.483596, "state": "WA", "latitude": 47.002178, "timezone": -8}},{"type": "Feature", "geometry": {"type": "Point", "coordinates": [-122.62846, 45.63873]}, "properties": {"city": "Vancouver", "zip": "98661", "dst": 1, "geopoint": [45.63873, -122.62846], "longitude": -122.62846, "state": "WA", "latitude": 45.63873, "timezone": -8}},{"type": "Feature", "geometry": {"type": "Point", "coordinates": [-124.64076, 48.35306]}, "properties": {"city": "Neah Bay", "zip": "98357", "dst": 1, "geopoint": [48.35306, -124.64076], "longitude": -124.64076, "state": "WA", "latitude": 48.35306, "timezone": -8}},{"type": "Feature", "geometry": {"type": "Point", "coordinates": [-122.37468, 47.66747]}, "properties": {"city": "Seattle", "zip": "98107", "dst": 1, "geopoint": [47.66747, -122.37468], "longitude": -122.37468, "state": "WA", "latitude": 47.66747, "timezone": -8}},{"type": "Feature", "geometry": {"type": "Point", "coordinates": [-117.19597, 46.983768]}, "properties": {"city": "Garfield", "zip": "99130", "dst": 1, "geopoint": [46.983768, -117.19597], "longitude": -117.19597, "state": "WA", "latitude": 46.983768, "timezone": -8}},{"type": "Feature", "geometry": {"type": "Point", "coordinates": [-119.911288, 46.68039]}, "properties": {"city": "Desert Aire", "zip": "99319", "dst": 1, "geopoint": [46.68039, -119.911288], "longitude": -119.911288, "state": "WA", "latitude": 46.68039, "timezone": -8}},{"type": "Feature", "geometry": {"type": "Point", "coordinates": [-122.40089, 47.962134]}, "properties": {"city": "Clinton", "zip": "98236", "dst": 1, "geopoint": [47.962134, -122.40089], "longitude": -122.40089, "state": "WA", "latitude": 47.962134, "timezone": -8}},{"type": "Feature", "geometry": {"type": "Point", "coordinates": [-122.7222, 47.378121]}, "properties": {"city": "Gig Harbor", "zip": "98329", "dst": 1, "geopoint": [47.378121, -122.7222], "longitude": -122.7222, "state": "WA", "latitude": 47.378121, "timezone": -8}},{"type": "Feature", "geometry": {"type": "Point", "coordinates": [-117.37274, 47.844289]}, "properties": {"city": "Colbert", "zip": "99005", "dst": 1, "geopoint": [47.844289, -117.37274], "longitude": -117.37274, "state": "WA", "latitude": 47.844289, "timezone": -8}},{"type": "Feature", "geometry": {"type": "Point", "coordinates": [-117.37899, 47.656692]}, "properties": {"city": "Spokane", "zip": "99202", "dst": 1, "geopoint": [47.656692, -117.37899], "longitude": -117.37899, "state": "WA", "latitude": 47.656692, "timezone": -8}},{"type": "Feature", "geometry": {"type": "Point", "coordinates": [-122.113223, 47.066193]}, "properties": {"city": "Paradise Inn", "zip": "98398", "dst": 1, "geopoint": [47.066193, -122.113223], "longitude": -122.113223, "state": "WA", "latitude": 47.066193, "timezone": -8}},{"type": "Feature", "geometry": {"type": "Point", "coordinates": [-123.76903, 46.514625]}, "properties": {"city": "Nahcotta", "zip": "98637", "dst": 1, "geopoint": [46.514625, -123.76903], "longitude": -123.76903, "state": "WA", "latitude": 46.514625, "timezone": -8}},{"type": "Feature", "geometry": {"type": "Point", "coordinates": [-120.46721, 46.457731]}, "properties": {"city": "Wapato", "zip": "98951", "dst": 1, "geopoint": [46.457731, -120.46721], "longitude": -120.46721, "state": "WA", "latitude": 46.457731, "timezone": -8}},{"type": "Feature", "geometry": {"type": "Point", "coordinates": [-122.68794, 48.058323]}, "properties": {"city": "Nordland", "zip": "98358", "dst": 1, "geopoint": [48.058323, -122.68794], "longitude": -122.68794, "state": "WA", "latitude": 48.058323, "timezone": -8}},{"type": "Feature", "geometry": {"type": "Point", "coordinates": [-123.298384, 46.571323]}, "properties": {"city": "Adna", "zip": "98522", "dst": 1, "geopoint": [46.571323, -123.298384], "longitude": -123.298384, "state": "WA", "latitude": 46.571323, "timezone": -8}},{"type": "Feature", "geometry": {"type": "Point", "coordinates": [-121.682271, 48.037258]}, "properties": {"city": "Silvana", "zip": "98287", "dst": 1, "geopoint": [48.037258, -121.682271], "longitude": -121.682271, "state": "WA", "latitude": 48.037258, "timezone": -8}},{"type": "Feature", "geometry": {"type": "Point", "coordinates": [-122.32855, 47.60252]}, "properties": {"city": "Seattle", "zip": "98104", "dst": 1, "geopoint": [47.60252, -122.32855], "longitude": -122.32855, "state": "WA", "latitude": 47.60252, "timezone": -8}},{"type": "Feature", "geometry": {"type": "Point", "coordinates": [-117.40636, 47.629091]}, "properties": {"city": "Spokane", "zip": "99203", "dst": 1, "geopoint": [47.629091, -117.40636], "longitude": -117.40636, "state": "WA", "latitude": 47.629091, "timezone": -8}},{"type": "Feature", "geometry": {"type": "Point", "coordinates": [-117.43174, 47.648941]}, "properties": {"city": "Spokane", "zip": "99204", "dst": 1, "geopoint": [47.648941, -117.43174], "longitude": -117.43174, "state": "WA", "latitude": 47.648941, "timezone": -8}},{"type": "Feature", "geometry": {"type": "Point", "coordinates": [-122.033685, 47.584879]}, "properties": {"city": "Sammamish", "zip": "98075", "dst": 1, "geopoint": [47.584879, -122.033685], "longitude": -122.033685, "state": "WA", "latitude": 47.584879, "timezone": -8}},{"type": "Feature", "geometry": {"type": "Point", "coordinates": [-124.16027, 47.118566]}, "properties": {"city": "Copalis Beach", "zip": "98535", "dst": 1, "geopoint": [47.118566, -124.16027], "longitude": -124.16027, "state": "WA", "latitude": 47.118566, "timezone": -8}},{"type": "Feature", "geometry": {"type": "Point", "coordinates": [-122.77537, 47.200168]}, "properties": {"city": "Longbranch", "zip": "98351", "dst": 1, "geopoint": [47.200168, -122.77537], "longitude": -122.77537, "state": "WA", "latitude": 47.200168, "timezone": -8}},{"type": "Feature", "geometry": {"type": "Point", "coordinates": [-122.649953, 47.626717]}, "properties": {"city": "Tracyton", "zip": "98393", "dst": 1, "geopoint": [47.626717, -122.649953], "longitude": -122.649953, "state": "WA", "latitude": 47.626717, "timezone": -8}},{"type": "Feature", "geometry": {"type": "Point", "coordinates": [-120.28372, 45.816528]}, "properties": {"city": "Roosevelt", "zip": "99356", "dst": 1, "geopoint": [45.816528, -120.28372], "longitude": -120.28372, "state": "WA", "latitude": 45.816528, "timezone": -8}},{"type": "Feature", "geometry": {"type": "Point", "coordinates": [-121.803388, 47.432251]}, "properties": {"city": "Seattle", "zip": "98132", "dst": 1, "geopoint": [47.432251, -121.803388], "longitude": -121.803388, "state": "WA", "latitude": 47.432251, "timezone": -8}},{"type": "Feature", "geometry": {"type": "Point", "coordinates": [-122.30406, 47.61157]}, "properties": {"city": "Seattle", "zip": "98122", "dst": 1, "geopoint": [47.61157, -122.30406], "longitude": -122.30406, "state": "WA", "latitude": 47.61157, "timezone": -8}},{"type": "Feature", "geometry": {"type": "Point", "coordinates": [-124.05517, 46.332077]}, "properties": {"city": "Seaview", "zip": "98644", "dst": 1, "geopoint": [46.332077, -124.05517], "longitude": -124.05517, "state": "WA", "latitude": 46.332077, "timezone": -8}},{"type": "Feature", "geometry": {"type": "Point", "coordinates": [-122.67573, 46.871178]}, "properties": {"city": "Rainier", "zip": "98576", "dst": 1, "geopoint": [46.871178, -122.67573], "longitude": -122.67573, "state": "WA", "latitude": 46.871178, "timezone": -8}},{"type": "Feature", "geometry": {"type": "Point", "coordinates": [-118.19393, 46.523206]}, "properties": {"city": "Starbuck", "zip": "99359", "dst": 1, "geopoint": [46.523206, -118.19393], "longitude": -118.19393, "state": "WA", "latitude": 46.523206, "timezone": -8}},{"type": "Feature", "geometry": {"type": "Point", "coordinates": [-122.52294, 47.12562]}, "properties": {"city": "Lakewood", "zip": "98439", "dst": 1, "geopoint": [47.12562, -122.52294], "longitude": -122.52294, "state": "WA", "latitude": 47.12562, "timezone": -8}},{"type": "Feature", "geometry": {"type": "Point", "coordinates": [-122.192276, 47.369098]}, "properties": {"city": "Kent", "zip": "98030", "dst": 1, "geopoint": [47.369098, -122.192276], "longitude": -122.192276, "state": "WA", "latitude": 47.369098, "timezone": -8}},{"type": "Feature", "geometry": {"type": "Point", "coordinates": [-122.46599, 47.248953]}, "properties": {"city": "Tacoma", "zip": "98405", "dst": 1, "geopoint": [47.248953, -122.46599], "longitude": -122.46599, "state": "WA", "latitude": 47.248953, "timezone": -8}},{"type": "Feature", "geometry": {"type": "Point", "coordinates": [-122.78382, 47.974586]}, "properties": {"city": "Chimacum", "zip": "98325", "dst": 1, "geopoint": [47.974586, -122.78382], "longitude": -122.78382, "state": "WA", "latitude": 47.974586, "timezone": -8}},{"type": "Feature", "geometry": {"type": "Point", "coordinates": [-122.6005, 47.164965]}, "properties": {"city": "Steilacoom", "zip": "98388", "dst": 1, "geopoint": [47.164965, -122.6005], "longitude": -122.6005, "state": "WA", "latitude": 47.164965, "timezone": -8}},{"type": "Feature", "geometry": {"type": "Point", "coordinates": [-122.28394, 47.808816]}, "properties": {"city": "Lynnwood", "zip": "98036", "dst": 1, "geopoint": [47.808816, -122.28394], "longitude": -122.28394, "state": "WA", "latitude": 47.808816, "timezone": -8}},{"type": "Feature", "geometry": {"type": "Point", "coordinates": [-123.6907, 46.899189]}, "properties": {"city": "Cosmopolis", "zip": "98537", "dst": 1, "geopoint": [46.899189, -123.6907], "longitude": -123.6907, "state": "WA", "latitude": 46.899189, "timezone": -8}},{"type": "Feature", "geometry": {"type": "Point", "coordinates": [-120.99286, 47.224876]}, "properties": {"city": "Roslyn", "zip": "98941", "dst": 1, "geopoint": [47.224876, -120.99286], "longitude": -120.99286, "state": "WA", "latitude": 47.224876, "timezone": -8}},{"type": "Feature", "geometry": {"type": "Point", "coordinates": [-122.48754, 46.954282]}, "properties": {"city": "Roy", "zip": "98580", "dst": 1, "geopoint": [46.954282, -122.48754], "longitude": -122.48754, "state": "WA", "latitude": 46.954282, "timezone": -8}},{"type": "Feature", "geometry": {"type": "Point", "coordinates": [-118.43136, 47.107228]}, "properties": {"city": "Ritzville", "zip": "99169", "dst": 1, "geopoint": [47.107228, -118.43136], "longitude": -118.43136, "state": "WA", "latitude": 47.107228, "timezone": -8}},{"type": "Feature", "geometry": {"type": "Point", "coordinates": [-122.33651, 47.821568]}, "properties": {"city": "Edmonds", "zip": "98026", "dst": 1, "geopoint": [47.821568, -122.33651], "longitude": -122.33651, "state": "WA", "latitude": 47.821568, "timezone": -8}},{"type": "Feature", "geometry": {"type": "Point", "coordinates": [-122.21602, 47.304221]}, "properties": {"city": "Auburn", "zip": "98002", "dst": 1, "geopoint": [47.304221, -122.21602], "longitude": -122.21602, "state": "WA", "latitude": 47.304221, "timezone": -8}},{"type": "Feature", "geometry": {"type": "Point", "coordinates": [-122.64326, 47.088719]}, "properties": {"city": "Dupont", "zip": "98327", "dst": 1, "geopoint": [47.088719, -122.64326], "longitude": -122.64326, "state": "WA", "latitude": 47.088719, "timezone": -8}},{"type": "Feature", "geometry": {"type": "Point", "coordinates": [-122.95142, 46.728383]}, "properties": {"city": "Centralia", "zip": "98531", "dst": 1, "geopoint": [46.728383, -122.95142], "longitude": -122.95142, "state": "WA", "latitude": 46.728383, "timezone": -8}},{"type": "Feature", "geometry": {"type": "Point", "coordinates": [-122.113223, 47.066193]}, "properties": {"city": "Sumner", "zip": "98352", "dst": 1, "geopoint": [47.066193, -122.113223], "longitude": -122.113223, "state": "WA", "latitude": 47.066193, "timezone": -8}},{"type": "Feature", "geometry": {"type": "Point", "coordinates": [-122.27131, 47.198591]}, "properties": {"city": "Puyallup", "zip": "98372", "dst": 1, "geopoint": [47.198591, -122.27131], "longitude": -122.27131, "state": "WA", "latitude": 47.198591, "timezone": -8}},{"type": "Feature", "geometry": {"type": "Point", "coordinates": [-121.47607, 47.763755]}, "properties": {"city": "Baring", "zip": "98224", "dst": 1, "geopoint": [47.763755, -121.47607], "longitude": -121.47607, "state": "WA", "latitude": 47.763755, "timezone": -8}},{"type": "Feature", "geometry": {"type": "Point", "coordinates": [-124.37144, 48.283826]}, "properties": {"city": "Sekiu", "zip": "98381", "dst": 1, "geopoint": [48.283826, -124.37144], "longitude": -124.37144, "state": "WA", "latitude": 48.283826, "timezone": -8}},{"type": "Feature", "geometry": {"type": "Point", "coordinates": [-121.09804, 45.82786]}, "properties": {"city": "Klickitat", "zip": "98628", "dst": 1, "geopoint": [45.82786, -121.09804], "longitude": -121.09804, "state": "WA", "latitude": 45.82786, "timezone": -8}},{"type": "Feature", "geometry": {"type": "Point", "coordinates": [-122.1977, 48.681582]}, "properties": {"city": "Acme", "zip": "98220", "dst": 1, "geopoint": [48.681582, -122.1977], "longitude": -122.1977, "state": "WA", "latitude": 48.681582, "timezone": -8}},{"type": "Feature", "geometry": {"type": "Point", "coordinates": [-117.4092, 46.875136]}, "properties": {"city": "Colfax", "zip": "99111", "dst": 1, "geopoint": [46.875136, -117.4092], "longitude": -117.4092, "state": "WA", "latitude": 46.875136, "timezone": -8}},{"type": "Feature", "geometry": {"type": "Point", "coordinates": [-122.21614, 48.093129]}, "properties": {"city": "Marysville", "zip": "98271", "dst": 1, "geopoint": [48.093129, -122.21614], "longitude": -122.21614, "state": "WA", "latitude": 48.093129, "timezone": -8}},{"type": "Feature", "geometry": {"type": "Point", "coordinates": [-122.1155, 47.609222]}, "properties": {"city": "Bellevue", "zip": "98008", "dst": 1, "geopoint": [47.609222, -122.1155], "longitude": -122.1155, "state": "WA", "latitude": 47.609222, "timezone": -8}},{"type": "Feature", "geometry": {"type": "Point", "coordinates": [-122.48053, 47.208987]}, "properties": {"city": "Tacoma", "zip": "98409", "dst": 1, "geopoint": [47.208987, -122.48053], "longitude": -122.48053, "state": "WA", "latitude": 47.208987, "timezone": -8}},{"type": "Feature", "geometry": {"type": "Point", "coordinates": [-122.52023, 45.627459]}, "properties": {"city": "Vancouver", "zip": "98684", "dst": 1, "geopoint": [45.627459, -122.52023], "longitude": -122.52023, "state": "WA", "latitude": 45.627459, "timezone": -8}},{"type": "Feature", "geometry": {"type": "Point", "coordinates": [-121.286091, 45.694098]}, "properties": {"city": "Lyle", "zip": "98653", "dst": 1, "geopoint": [45.694098, -121.286091], "longitude": -121.286091, "state": "WA", "latitude": 45.694098, "timezone": -8}},{"type": "Feature", "geometry": {"type": "Point", "coordinates": [-122.55877, 47.16062]}, "properties": {"city": "Lakewood", "zip": "98498", "dst": 1, "geopoint": [47.16062, -122.55877], "longitude": -122.55877, "state": "WA", "latitude": 47.16062, "timezone": -8}},{"type": "Feature", "geometry": {"type": "Point", "coordinates": [-120.33462, 46.35653]}, "properties": {"city": "Toppenish", "zip": "98948", "dst": 1, "geopoint": [46.35653, -120.33462], "longitude": -120.33462, "state": "WA", "latitude": 46.35653, "timezone": -8}},{"type": "Feature", "geometry": {"type": "Point", "coordinates": [-121.682271, 48.037258]}, "properties": {"city": "Everett", "zip": "98207", "dst": 1, "geopoint": [48.037258, -121.682271], "longitude": -121.682271, "state": "WA", "latitude": 48.037258, "timezone": -8}},{"type": "Feature", "geometry": {"type": "Point", "coordinates": [-122.55585, 46.955863]}, "properties": {"city": "Mckenna", "zip": "98558", "dst": 1, "geopoint": [46.955863, -122.55585], "longitude": -122.55585, "state": "WA", "latitude": 46.955863, "timezone": -8}},{"type": "Feature", "geometry": {"type": "Point", "coordinates": [-122.17858, 46.761546]}, "properties": {"city": "Elbe", "zip": "98330", "dst": 1, "geopoint": [46.761546, -122.17858], "longitude": -122.17858, "state": "WA", "latitude": 46.761546, "timezone": -8}},{"type": "Feature", "geometry": {"type": "Point", "coordinates": [-117.24891, 48.041663]}, "properties": {"city": "Elk", "zip": "99009", "dst": 1, "geopoint": [48.041663, -117.24891], "longitude": -117.24891, "state": "WA", "latitude": 48.041663, "timezone": -8}},{"type": "Feature", "geometry": {"type": "Point", "coordinates": [-119.06888, 46.467186]}, "properties": {"city": "Eltopia", "zip": "99330", "dst": 1, "geopoint": [46.467186, -119.06888], "longitude": -119.06888, "state": "WA", "latitude": 46.467186, "timezone": -8}},{"type": "Feature", "geometry": {"type": "Point", "coordinates": [-119.23982, 46.192356]}, "properties": {"city": "Kennewick", "zip": "99338", "dst": 1, "geopoint": [46.192356, -119.23982], "longitude": -119.23982, "state": "WA", "latitude": 46.192356, "timezone": -8}},{"type": "Feature", "geometry": {"type": "Point", "coordinates": [-120.26699, 46.418933]}, "properties": {"city": "Zillah", "zip": "98953", "dst": 1, "geopoint": [46.418933, -120.26699], "longitude": -120.26699, "state": "WA", "latitude": 46.418933, "timezone": -8}},{"type": "Feature", "geometry": {"type": "Point", "coordinates": [-122.31864, 47.147862]}, "properties": {"city": "Puyallup", "zip": "98373", "dst": 1, "geopoint": [47.147862, -122.31864], "longitude": -122.31864, "state": "WA", "latitude": 47.147862, "timezone": -8}},{"type": "Feature", "geometry": {"type": "Point", "coordinates": [-122.702393, 46.978118]}, "properties": {"city": "Lacey", "zip": "98509", "dst": 1, "geopoint": [46.978118, -122.702393], "longitude": -122.702393, "state": "WA", "latitude": 46.978118, "timezone": -8}},{"type": "Feature", "geometry": {"type": "Point", "coordinates": [-122.19644, 47.388461]}, "properties": {"city": "Kent", "zip": "98031", "dst": 1, "geopoint": [47.388461, -122.19644], "longitude": -122.19644, "state": "WA", "latitude": 47.388461, "timezone": -8}},{"type": "Feature", "geometry": {"type": "Point", "coordinates": [-122.113791, 47.311041]}, "properties": {"city": "Federal Way", "zip": "98093", "dst": 1, "geopoint": [47.311041, -122.113791], "longitude": -122.113791, "state": "WA", "latitude": 47.311041, "timezone": -8}},{"type": "Feature", "geometry": {"type": "Point", "coordinates": [-122.30122, 47.68382]}, "properties": {"city": "Seattle", "zip": "98115", "dst": 1, "geopoint": [47.68382, -122.30122], "longitude": -122.30122, "state": "WA", "latitude": 47.68382, "timezone": -8}},{"type": "Feature", "geometry": {"type": "Point", "coordinates": [-122.832799, 47.266017]}, "properties": {"city": "Wauna", "zip": "98395", "dst": 1, "geopoint": [47.266017, -122.832799], "longitude": -122.832799, "state": "WA", "latitude": 47.266017, "timezone": -8}},{"type": "Feature", "geometry": {"type": "Point", "coordinates": [-118.06417, 48.664206]}, "properties": {"city": "Marcus", "zip": "99151", "dst": 1, "geopoint": [48.664206, -118.06417], "longitude": -118.06417, "state": "WA", "latitude": 48.664206, "timezone": -8}},{"type": "Feature", "geometry": {"type": "Point", "coordinates": [-117.431742, 47.653568]}, "properties": {"city": "Spokane", "zip": "99260", "dst": 1, "geopoint": [47.653568, -117.431742], "longitude": -117.431742, "state": "WA", "latitude": 47.653568, "timezone": -8}},{"type": "Feature", "geometry": {"type": "Point", "coordinates": [-122.35196, 48.414576]}, "properties": {"city": "Mount Vernon", "zip": "98273", "dst": 1, "geopoint": [48.414576, -122.35196], "longitude": -122.35196, "state": "WA", "latitude": 48.414576, "timezone": -8}},{"type": "Feature", "geometry": {"type": "Point", "coordinates": [-120.573967, 46.628757]}, "properties": {"city": "Yakima", "zip": "98907", "dst": 1, "geopoint": [46.628757, -120.573967], "longitude": -120.573967, "state": "WA", "latitude": 46.628757, "timezone": -8}},{"type": "Feature", "geometry": {"type": "Point", "coordinates": [-122.113223, 47.066193]}, "properties": {"city": "Tacoma", "zip": "98447", "dst": 1, "geopoint": [47.066193, -122.113223], "longitude": -122.113223, "state": "WA", "latitude": 47.066193, "timezone": -8}},{"type": "Feature", "geometry": {"type": "Point", "coordinates": [-117.595751, 47.55988]}, "properties": {"city": "Four Lakes", "zip": "99014", "dst": 1, "geopoint": [47.55988, -117.595751], "longitude": -117.595751, "state": "WA", "latitude": 47.55988, "timezone": -8}},{"type": "Feature", "geometry": {"type": "Point", "coordinates": [-118.09326, 48.290089]}, "properties": {"city": "Gifford", "zip": "99131", "dst": 1, "geopoint": [48.290089, -118.09326], "longitude": -118.09326, "state": "WA", "latitude": 48.290089, "timezone": -8}},{"type": "Feature", "geometry": {"type": "Point", "coordinates": [-123.90189, 47.355226]}, "properties": {"city": "Humptulips", "zip": "98552", "dst": 1, "geopoint": [47.355226, -123.90189], "longitude": -123.90189, "state": "WA", "latitude": 47.355226, "timezone": -8}},{"type": "Feature", "geometry": {"type": "Point", "coordinates": [-119.03268, 47.290624]}, "properties": {"city": "Marlin", "zip": "98832", "dst": 1, "geopoint": [47.290624, -119.03268], "longitude": -119.03268, "state": "WA", "latitude": 47.290624, "timezone": -8}},{"type": "Feature", "geometry": {"type": "Point", "coordinates": [-117.4111, 48.736168]}, "properties": {"city": "Ione", "zip": "99139", "dst": 1, "geopoint": [48.736168, -117.4111], "longitude": -117.4111, "state": "WA", "latitude": 48.736168, "timezone": -8}},{"type": "Feature", "geometry": {"type": "Point", "coordinates": [-117.18648, 46.732705]}, "properties": {"city": "Pullman", "zip": "99163", "dst": 1, "geopoint": [46.732705, -117.18648], "longitude": -117.18648, "state": "WA", "latitude": 46.732705, "timezone": -8}},{"type": "Feature", "geometry": {"type": "Point", "coordinates": [-119.57129, 47.297368]}, "properties": {"city": "Ephrata", "zip": "98823", "dst": 1, "geopoint": [47.297368, -119.57129], "longitude": -119.57129, "state": "WA", "latitude": 47.297368, "timezone": -8}},{"type": "Feature", "geometry": {"type": "Point", "coordinates": [-117.10575, 46.905132]}, "properties": {"city": "Palouse", "zip": "99161", "dst": 1, "geopoint": [46.905132, -117.10575], "longitude": -117.10575, "state": "WA", "latitude": 46.905132, "timezone": -8}},{"type": "Feature", "geometry": {"type": "Point", "coordinates": [-122.88417, 47.445292]}, "properties": {"city": "Belfair", "zip": "98528", "dst": 1, "geopoint": [47.445292, -122.88417], "longitude": -122.88417, "state": "WA", "latitude": 47.445292, "timezone": -8}},{"type": "Feature", "geometry": {"type": "Point", "coordinates": [-123.40713, 47.03575]}, "properties": {"city": "Elma", "zip": "98541", "dst": 1, "geopoint": [47.03575, -123.40713], "longitude": -123.40713, "state": "WA", "latitude": 47.03575, "timezone": -8}},{"type": "Feature", "geometry": {"type": "Point", "coordinates": [-122.26012, 47.140045]}, "properties": {"city": "Puyallup", "zip": "98374", "dst": 1, "geopoint": [47.140045, -122.26012], "longitude": -122.26012, "state": "WA", "latitude": 47.140045, "timezone": -8}},{"type": "Feature", "geometry": {"type": "Point", "coordinates": [-120.12934, 47.915227]}, "properties": {"city": "Manson", "zip": "98831", "dst": 1, "geopoint": [47.915227, -120.12934], "longitude": -120.12934, "state": "WA", "latitude": 47.915227, "timezone": -8}},{"type": "Feature", "geometry": {"type": "Point", "coordinates": [-122.19797, 47.893451]}, "properties": {"city": "Everett", "zip": "98208", "dst": 1, "geopoint": [47.893451, -122.19797], "longitude": -122.19797, "state": "WA", "latitude": 47.893451, "timezone": -8}},{"type": "Feature", "geometry": {"type": "Point", "coordinates": [-119.17443, 46.843397]}, "properties": {"city": "Othello", "zip": "99344", "dst": 1, "geopoint": [46.843397, -119.17443], "longitude": -119.17443, "state": "WA", "latitude": 46.843397, "timezone": -8}},{"type": "Feature", "geometry": {"type": "Point", "coordinates": [-122.89456, 47.596122]}, "properties": {"city": "Seabeck", "zip": "98380", "dst": 1, "geopoint": [47.596122, -122.89456], "longitude": -122.89456, "state": "WA", "latitude": 47.596122, "timezone": -8}},{"type": "Feature", "geometry": {"type": "Point", "coordinates": [-120.53102, 46.595248]}, "properties": {"city": "Yakima", "zip": "98902", "dst": 1, "geopoint": [46.595248, -120.53102], "longitude": -120.53102, "state": "WA", "latitude": 46.595248, "timezone": -8}},{"type": "Feature", "geometry": {"type": "Point", "coordinates": [-122.37096, 47.803668]}, "properties": {"city": "Edmonds", "zip": "98020", "dst": 1, "geopoint": [47.803668, -122.37096], "longitude": -122.37096, "state": "WA", "latitude": 47.803668, "timezone": -8}},{"type": "Feature", "geometry": {"type": "Point", "coordinates": [-120.12065, 48.231421]}, "properties": {"city": "Carlton", "zip": "98814", "dst": 1, "geopoint": [48.231421, -120.12065], "longitude": -120.12065, "state": "WA", "latitude": 48.231421, "timezone": -8}},{"type": "Feature", "geometry": {"type": "Point", "coordinates": [-120.60457, 47.552462]}, "properties": {"city": "Peshastin", "zip": "98847", "dst": 1, "geopoint": [47.552462, -120.60457], "longitude": -120.60457, "state": "WA", "latitude": 47.552462, "timezone": -8}},{"type": "Feature", "geometry": {"type": "Point", "coordinates": [-122.20257, 47.751471]}, "properties": {"city": "Bothell", "zip": "98011", "dst": 1, "geopoint": [47.751471, -122.20257], "longitude": -122.20257, "state": "WA", "latitude": 47.751471, "timezone": -8}},{"type": "Feature", "geometry": {"type": "Point", "coordinates": [-117.29378, 47.921687]}, "properties": {"city": "Chattaroy", "zip": "99003", "dst": 1, "geopoint": [47.921687, -117.29378], "longitude": -117.29378, "state": "WA", "latitude": 47.921687, "timezone": -8}},{"type": "Feature", "geometry": {"type": "Point", "coordinates": [-122.49518, 47.26302]}, "properties": {"city": "Tacoma", "zip": "98406", "dst": 1, "geopoint": [47.26302, -122.49518], "longitude": -122.49518, "state": "WA", "latitude": 47.26302, "timezone": -8}},{"type": "Feature", "geometry": {"type": "Point", "coordinates": [-122.36694, 47.63877]}, "properties": {"city": "Seattle", "zip": "98119", "dst": 1, "geopoint": [47.63877, -122.36694], "longitude": -122.36694, "state": "WA", "latitude": 47.63877, "timezone": -8}},{"type": "Feature", "geometry": {"type": "Point", "coordinates": [-122.57987, 47.080682]}, "properties": {"city": "Tacoma", "zip": "98433", "dst": 1, "geopoint": [47.080682, -122.57987], "longitude": -122.57987, "state": "WA", "latitude": 47.080682, "timezone": -8}},{"type": "Feature", "geometry": {"type": "Point", "coordinates": [-122.35688, 47.501753]}, "properties": {"city": "Seattle", "zip": "98146", "dst": 1, "geopoint": [47.501753, -122.35688], "longitude": -122.35688, "state": "WA", "latitude": 47.501753, "timezone": -8}},{"type": "Feature", "geometry": {"type": "Point", "coordinates": [-124.04801, 46.501781]}, "properties": {"city": "Ocean Park", "zip": "98640", "dst": 1, "geopoint": [46.501781, -124.04801], "longitude": -124.04801, "state": "WA", "latitude": 46.501781, "timezone": -8}},{"type": "Feature", "geometry": {"type": "Point", "coordinates": [-122.51319, 45.67309]}, "properties": {"city": "Vancouver", "zip": "98682", "dst": 1, "geopoint": [45.67309, -122.51319], "longitude": -122.51319, "state": "WA", "latitude": 45.67309, "timezone": -8}},{"type": "Feature", "geometry": {"type": "Point", "coordinates": [-118.87987, 46.191158]}, "properties": {"city": "Burbank", "zip": "99323", "dst": 1, "geopoint": [46.191158, -118.87987], "longitude": -118.87987, "state": "WA", "latitude": 46.191158, "timezone": -8}},{"type": "Feature", "geometry": {"type": "Point", "coordinates": [-120.315141, 46.421218]}, "properties": {"city": "Buena", "zip": "98921", "dst": 1, "geopoint": [46.421218, -120.315141], "longitude": -120.315141, "state": "WA", "latitude": 46.421218, "timezone": -8}},{"type": "Feature", "geometry": {"type": "Point", "coordinates": [-121.988548, 48.814753]}, "properties": {"city": "Bellingham", "zip": "98227", "dst": 1, "geopoint": [48.814753, -121.988548], "longitude": -121.988548, "state": "WA", "latitude": 48.814753, "timezone": -8}},{"type": "Feature", "geometry": {"type": "Point", "coordinates": [-117.74564, 48.144634]}, "properties": {"city": "Valley", "zip": "99181", "dst": 1, "geopoint": [48.144634, -117.74564], "longitude": -117.74564, "state": "WA", "latitude": 48.144634, "timezone": -8}},{"type": "Feature", "geometry": {"type": "Point", "coordinates": [-122.729304, 47.687971]}, "properties": {"city": "Burley", "zip": "98322", "dst": 1, "geopoint": [47.687971, -122.729304], "longitude": -122.729304, "state": "WA", "latitude": 47.687971, "timezone": -8}},{"type": "Feature", "geometry": {"type": "Point", "coordinates": [-123.25649, 46.84066]}, "properties": {"city": "Oakville", "zip": "98568", "dst": 1, "geopoint": [46.84066, -123.25649], "longitude": -123.25649, "state": "WA", "latitude": 46.84066, "timezone": -8}},{"type": "Feature", "geometry": {"type": "Point", "coordinates": [-120.09871, 46.364164]}, "properties": {"city": "Outlook", "zip": "98938", "dst": 1, "geopoint": [46.364164, -120.09871], "longitude": -120.09871, "state": "WA", "latitude": 46.364164, "timezone": -8}},{"type": "Feature", "geometry": {"type": "Point", "coordinates": [-121.803388, 47.432251]}, "properties": {"city": "Seahurst", "zip": "98062", "dst": 1, "geopoint": [47.432251, -121.803388], "longitude": -121.803388, "state": "WA", "latitude": 47.432251, "timezone": -8}},{"type": "Feature", "geometry": {"type": "Point", "coordinates": [-122.85233, 47.826111]}, "properties": {"city": "Quilcene", "zip": "98376", "dst": 1, "geopoint": [47.826111, -122.85233], "longitude": -122.85233, "state": "WA", "latitude": 47.826111, "timezone": -8}},{"type": "Feature", "geometry": {"type": "Point", "coordinates": [-124.35888, 47.838423]}, "properties": {"city": "Forks", "zip": "98331", "dst": 1, "geopoint": [47.838423, -124.35888], "longitude": -124.35888, "state": "WA", "latitude": 47.838423, "timezone": -8}},{"type": "Feature", "geometry": {"type": "Point", "coordinates": [-122.53345, 46.588026]}, "properties": {"city": "Cinebar", "zip": "98533", "dst": 1, "geopoint": [46.588026, -122.53345], "longitude": -122.53345, "state": "WA", "latitude": 46.588026, "timezone": -8}},{"type": "Feature", "geometry": {"type": "Point", "coordinates": [-122.43971, 47.247671]}, "properties": {"city": "Tacoma", "zip": "98402", "dst": 1, "geopoint": [47.247671, -122.43971], "longitude": -122.43971, "state": "WA", "latitude": 47.247671, "timezone": -8}},{"type": "Feature", "geometry": {"type": "Point", "coordinates": [-117.59149, 47.642922]}, "properties": {"city": "Airway Heights", "zip": "99001", "dst": 1, "geopoint": [47.642922, -117.59149], "longitude": -117.59149, "state": "WA", "latitude": 47.642922, "timezone": -8}},{"type": "Feature", "geometry": {"type": "Point", "coordinates": [-120.33322, 46.540842]}, "properties": {"city": "Moxee", "zip": "98936", "dst": 1, "geopoint": [46.540842, -120.33322], "longitude": -120.33322, "state": "WA", "latitude": 46.540842, "timezone": -8}},{"type": "Feature", "geometry": {"type": "Point", "coordinates": [-123.34624, 46.208318]}, "properties": {"city": "Cathlamet", "zip": "98612", "dst": 1, "geopoint": [46.208318, -123.34624], "longitude": -123.34624, "state": "WA", "latitude": 46.208318, "timezone": -8}},{"type": "Feature", "geometry": {"type": "Point", "coordinates": [-123.54788, 46.561375]}, "properties": {"city": "Lebam", "zip": "98554", "dst": 1, "geopoint": [46.561375, -123.54788], "longitude": -123.54788, "state": "WA", "latitude": 46.561375, "timezone": -8}},{"type": "Feature", "geometry": {"type": "Point", "coordinates": [-122.57129, 48.085852]}, "properties": {"city": "Greenbank", "zip": "98253", "dst": 1, "geopoint": [48.085852, -122.57129], "longitude": -122.57129, "state": "WA", "latitude": 48.085852, "timezone": -8}},{"type": "Feature", "geometry": {"type": "Point", "coordinates": [-119.98939, 46.880413]}, "properties": {"city": "Vantage", "zip": "98950", "dst": 1, "geopoint": [46.880413, -119.98939], "longitude": -119.98939, "state": "WA", "latitude": 46.880413, "timezone": -8}},{"type": "Feature", "geometry": {"type": "Point", "coordinates": [-122.02921, 47.522828]}, "properties": {"city": "Issaquah", "zip": "98027", "dst": 1, "geopoint": [47.522828, -122.02921], "longitude": -122.02921, "state": "WA", "latitude": 47.522828, "timezone": -8}},{"type": "Feature", "geometry": {"type": "Point", "coordinates": [-121.803388, 47.432251]}, "properties": {"city": "Seattle", "zip": "98158", "dst": 1, "geopoint": [47.432251, -121.803388], "longitude": -121.803388, "state": "WA", "latitude": 47.432251, "timezone": -8}},{"type": "Feature", "geometry": {"type": "Point", "coordinates": [-117.644337, 46.838747]}, "properties": {"city": "Hooper", "zip": "99333", "dst": 1, "geopoint": [46.838747, -117.644337], "longitude": -117.644337, "state": "WA", "latitude": 46.838747, "timezone": -8}},{"type": "Feature", "geometry": {"type": "Point", "coordinates": [-119.47909, 46.263399]}, "properties": {"city": "Benton City", "zip": "99320", "dst": 1, "geopoint": [46.263399, -119.47909], "longitude": -119.47909, "state": "WA", "latitude": 46.263399, "timezone": -8}},{"type": "Feature", "geometry": {"type": "Point", "coordinates": [-122.63041, 47.743302]}, "properties": {"city": "Poulsbo", "zip": "98370", "dst": 1, "geopoint": [47.743302, -122.63041], "longitude": -122.63041, "state": "WA", "latitude": 47.743302, "timezone": -8}},{"type": "Feature", "geometry": {"type": "Point", "coordinates": [-122.422431, 47.136544]}, "properties": {"city": "Parkland", "zip": "98448", "dst": 1, "geopoint": [47.136544, -122.422431], "longitude": -122.422431, "state": "WA", "latitude": 47.136544, "timezone": -8}},{"type": "Feature", "geometry": {"type": "Point", "coordinates": [-122.05255, 47.155649]}, "properties": {"city": "Buckley", "zip": "98321", "dst": 1, "geopoint": [47.155649, -122.05255], "longitude": -122.05255, "state": "WA", "latitude": 47.155649, "timezone": -8}},{"type": "Feature", "geometry": {"type": "Point", "coordinates": [-117.19993, 47.643346]}, "properties": {"city": "Veradale", "zip": "99037", "dst": 1, "geopoint": [47.643346, -117.19993], "longitude": -117.19993, "state": "WA", "latitude": 47.643346, "timezone": -8}},{"type": "Feature", "geometry": {"type": "Point", "coordinates": [-122.28348, 47.848237]}, "properties": {"city": "Lynnwood", "zip": "98037", "dst": 1, "geopoint": [47.848237, -122.28348], "longitude": -122.28348, "state": "WA", "latitude": 47.848237, "timezone": -8}},{"type": "Feature", "geometry": {"type": "Point", "coordinates": [-120.09326, 47.745842]}, "properties": {"city": "Orondo", "zip": "98843", "dst": 1, "geopoint": [47.745842, -120.09326], "longitude": -120.09326, "state": "WA", "latitude": 47.745842, "timezone": -8}},{"type": "Feature", "geometry": {"type": "Point", "coordinates": [-117.29236, 48.295497]}, "properties": {"city": "Usk", "zip": "99180", "dst": 1, "geopoint": [48.295497, -117.29236], "longitude": -117.29236, "state": "WA", "latitude": 48.295497, "timezone": -8}},{"type": "Feature", "geometry": {"type": "Point", "coordinates": [-117.7293, 46.941628]}, "properties": {"city": "Endicott", "zip": "99125", "dst": 1, "geopoint": [46.941628, -117.7293], "longitude": -117.7293, "state": "WA", "latitude": 46.941628, "timezone": -8}},{"type": "Feature", "geometry": {"type": "Point", "coordinates": [-122.907649, 46.985519]}, "properties": {"city": "Tumwater", "zip": "98500", "dst": 1, "geopoint": [46.985519, -122.907649], "longitude": -122.907649, "state": "WA", "latitude": 46.985519, "timezone": -8}},{"type": "Feature", "geometry": {"type": "Point", "coordinates": [-117.43916, 47.740491]}, "properties": {"city": "Spokane", "zip": "99208", "dst": 1, "geopoint": [47.740491, -117.43916], "longitude": -117.43916, "state": "WA", "latitude": 47.740491, "timezone": -8}},{"type": "Feature", "geometry": {"type": "Point", "coordinates": [-122.33438, 47.61067]}, "properties": {"city": "Seattle", "zip": "98101", "dst": 1, "geopoint": [47.61067, -122.33438], "longitude": -122.33438, "state": "WA", "latitude": 47.61067, "timezone": -8}},{"type": "Feature", "geometry": {"type": "Point", "coordinates": [-119.094271, 46.234957]}, "properties": {"city": "Pasco", "zip": "99302", "dst": 1, "geopoint": [46.234957, -119.094271], "longitude": -119.094271, "state": "WA", "latitude": 46.234957, "timezone": -8}},{"type": "Feature", "geometry": {"type": "Point", "coordinates": [-122.045347, 47.625364]}, "properties": {"city": "Sammamish", "zip": "98074", "dst": 1, "geopoint": [47.625364, -122.045347], "longitude": -122.045347, "state": "WA", "latitude": 47.625364, "timezone": -8}},{"type": "Feature", "geometry": {"type": "Point", "coordinates": [-122.45723, 48.943476]}, "properties": {"city": "Lynden", "zip": "98264", "dst": 1, "geopoint": [48.943476, -122.45723], "longitude": -122.45723, "state": "WA", "latitude": 48.943476, "timezone": -8}},{"type": "Feature", "geometry": {"type": "Point", "coordinates": [-122.27472, 47.450321]}, "properties": {"city": "Seattle", "zip": "98188", "dst": 1, "geopoint": [47.450321, -122.27472], "longitude": -122.27472, "state": "WA", "latitude": 47.450321, "timezone": -8}},{"type": "Feature", "geometry": {"type": "Point", "coordinates": [-117.176954, 47.079345]}, "properties": {"city": "Belmont", "zip": "99104", "dst": 1, "geopoint": [47.079345, -117.176954], "longitude": -117.176954, "state": "WA", "latitude": 47.079345, "timezone": -8}},{"type": "Feature", "geometry": {"type": "Point", "coordinates": [-122.09819, 47.138345]}, "properties": {"city": "South Prairie", "zip": "98385", "dst": 1, "geopoint": [47.138345, -122.09819], "longitude": -122.09819, "state": "WA", "latitude": 47.138345, "timezone": -8}},{"type": "Feature", "geometry": {"type": "Point", "coordinates": [-122.74407, 46.532624]}, "properties": {"city": "Ethel", "zip": "98542", "dst": 1, "geopoint": [46.532624, -122.74407], "longitude": -122.74407, "state": "WA", "latitude": 46.532624, "timezone": -8}},{"type": "Feature", "geometry": {"type": "Point", "coordinates": [-120.52364, 47.009726]}, "properties": {"city": "Ellensburg", "zip": "98926", "dst": 1, "geopoint": [47.009726, -120.52364], "longitude": -120.52364, "state": "WA", "latitude": 47.009726, "timezone": -8}},{"type": "Feature", "geometry": {"type": "Point", "coordinates": [-121.978279, 47.741268]}, "properties": {"city": "Duvall", "zip": "98319", "dst": 1, "geopoint": [47.741268, -121.978279], "longitude": -121.978279, "state": "WA", "latitude": 47.741268, "timezone": -8}},{"type": "Feature", "geometry": {"type": "Point", "coordinates": [-123.02536, 46.734909]}, "properties": {"city": "Galvin", "zip": "98544", "dst": 1, "geopoint": [46.734909, -123.02536], "longitude": -123.02536, "state": "WA", "latitude": 46.734909, "timezone": -8}},{"type": "Feature", "geometry": {"type": "Point", "coordinates": [-119.9395, 48.03925]}, "properties": {"city": "Pateros", "zip": "98846", "dst": 1, "geopoint": [48.03925, -119.9395], "longitude": -119.9395, "state": "WA", "latitude": 48.03925, "timezone": -8}},{"type": "Feature", "geometry": {"type": "Point", "coordinates": [-122.27496, 47.543348]}, "properties": {"city": "Seattle", "zip": "98118", "dst": 1, "geopoint": [47.543348, -122.27496], "longitude": -122.27496, "state": "WA", "latitude": 47.543348, "timezone": -8}},{"type": "Feature", "geometry": {"type": "Point", "coordinates": [-122.16328, 47.297285]}, "properties": {"city": "Auburn", "zip": "98092", "dst": 1, "geopoint": [47.297285, -122.16328], "longitude": -122.16328, "state": "WA", "latitude": 47.297285, "timezone": -8}},{"type": "Feature", "geometry": {"type": "Point", "coordinates": [-122.32253, 47.63287]}, "properties": {"city": "Seattle", "zip": "98102", "dst": 1, "geopoint": [47.63287, -122.32253], "longitude": -122.32253, "state": "WA", "latitude": 47.63287, "timezone": -8}},{"type": "Feature", "geometry": {"type": "Point", "coordinates": [-120.37126, 47.737028]}, "properties": {"city": "Ardenvoir", "zip": "98811", "dst": 1, "geopoint": [47.737028, -120.37126], "longitude": -120.37126, "state": "WA", "latitude": 47.737028, "timezone": -8}},{"type": "Feature", "geometry": {"type": "Point", "coordinates": [-117.431742, 47.653568]}, "properties": {"city": "Spokane", "zip": "99256", "dst": 1, "geopoint": [47.653568, -117.431742], "longitude": -117.431742, "state": "WA", "latitude": 47.653568, "timezone": -8}},{"type": "Feature", "geometry": {"type": "Point", "coordinates": [-123.62473, 46.302905]}, "properties": {"city": "Rosburg", "zip": "98643", "dst": 1, "geopoint": [46.302905, -123.62473], "longitude": -123.62473, "state": "WA", "latitude": 46.302905, "timezone": -8}},{"type": "Feature", "geometry": {"type": "Point", "coordinates": [-121.88638, 47.565642]}, "properties": {"city": "Fall City", "zip": "98024", "dst": 1, "geopoint": [47.565642, -121.88638], "longitude": -121.88638, "state": "WA", "latitude": 47.565642, "timezone": -8}},{"type": "Feature", "geometry": {"type": "Point", "coordinates": [-120.75713, 46.707735]}, "properties": {"city": "Tieton", "zip": "98947", "dst": 1, "geopoint": [46.707735, -120.75713], "longitude": -120.75713, "state": "WA", "latitude": 46.707735, "timezone": -8}},{"type": "Feature", "geometry": {"type": "Point", "coordinates": [-119.12107, 46.581454]}, "properties": {"city": "Mesa", "zip": "99343", "dst": 1, "geopoint": [46.581454, -119.12107], "longitude": -119.12107, "state": "WA", "latitude": 46.581454, "timezone": -8}},{"type": "Feature", "geometry": {"type": "Point", "coordinates": [-119.39066, 48.403174]}, "properties": {"city": "Omak", "zip": "98841", "dst": 1, "geopoint": [48.403174, -119.39066], "longitude": -119.39066, "state": "WA", "latitude": 48.403174, "timezone": -8}},{"type": "Feature", "geometry": {"type": "Point", "coordinates": [-122.16858, 47.611021]}, "properties": {"city": "Bellevue", "zip": "98005", "dst": 1, "geopoint": [47.611021, -122.16858], "longitude": -122.16858, "state": "WA", "latitude": 47.611021, "timezone": -8}},{"type": "Feature", "geometry": {"type": "Point", "coordinates": [-122.36178, 47.309021]}, "properties": {"city": "Federal Way", "zip": "98023", "dst": 1, "geopoint": [47.309021, -122.36178], "longitude": -122.36178, "state": "WA", "latitude": 47.309021, "timezone": -8}},{"type": "Feature", "geometry": {"type": "Point", "coordinates": [-122.57616, 46.528282]}, "properties": {"city": "Silver Creek", "zip": "98585", "dst": 1, "geopoint": [46.528282, -122.57616], "longitude": -122.57616, "state": "WA", "latitude": 46.528282, "timezone": -8}},{"type": "Feature", "geometry": {"type": "Point", "coordinates": [-117.431742, 47.653568]}, "properties": {"city": "Spokane", "zip": "99299", "dst": 1, "geopoint": [47.653568, -117.431742], "longitude": -117.431742, "state": "WA", "latitude": 47.653568, "timezone": -8}},{"type": "Feature", "geometry": {"type": "Point", "coordinates": [-122.34578, 47.61487]}, "properties": {"city": "Seattle", "zip": "98121", "dst": 1, "geopoint": [47.61487, -122.34578], "longitude": -122.34578, "state": "WA", "latitude": 47.61487, "timezone": -8}},{"type": "Feature", "geometry": {"type": "Point", "coordinates": [-120.13051, 48.359904]}, "properties": {"city": "Twisp", "zip": "98856", "dst": 1, "geopoint": [48.359904, -120.13051], "longitude": -120.13051, "state": "WA", "latitude": 48.359904, "timezone": -8}},{"type": "Feature", "geometry": {"type": "Point", "coordinates": [-122.32247, 47.112477]}, "properties": {"city": "Puyallup", "zip": "98375", "dst": 1, "geopoint": [47.112477, -122.32247], "longitude": -122.32247, "state": "WA", "latitude": 47.112477, "timezone": -8}},{"type": "Feature", "geometry": {"type": "Point", "coordinates": [-122.24463, 47.26619]}, "properties": {"city": "Pacific", "zip": "98047", "dst": 1, "geopoint": [47.26619, -122.24463], "longitude": -122.24463, "state": "WA", "latitude": 47.26619, "timezone": -8}},{"type": "Feature", "geometry": {"type": "Point", "coordinates": [-122.39392, 47.57487]}, "properties": {"city": "Seattle", "zip": "98116", "dst": 1, "geopoint": [47.57487, -122.39392], "longitude": -122.39392, "state": "WA", "latitude": 47.57487, "timezone": -8}},{"type": "Feature", "geometry": {"type": "Point", "coordinates": [-122.663954, 45.678557]}, "properties": {"city": "Hazel Dell North", "zip": "98655", "dst": 1, "geopoint": [45.678557, -122.663954], "longitude": -122.663954, "state": "WA", "latitude": 45.678557, "timezone": -8}},{"type": "Feature", "geometry": {"type": "Point", "coordinates": [-117.431742, 47.653568]}, "properties": {"city": "Spokane", "zip": "99210", "dst": 1, "geopoint": [47.653568, -117.431742], "longitude": -117.431742, "state": "WA", "latitude": 47.653568, "timezone": -8}},{"type": "Feature", "geometry": {"type": "Point", "coordinates": [-121.803388, 47.432251]}, "properties": {"city": "Seattle", "zip": "98131", "dst": 1, "geopoint": [47.432251, -121.803388], "longitude": -121.803388, "state": "WA", "latitude": 47.432251, "timezone": -8}},{"type": "Feature", "geometry": {"type": "Point", "coordinates": [-117.22306, 47.81108]}, "properties": {"city": "Mead", "zip": "99021", "dst": 1, "geopoint": [47.81108, -117.22306], "longitude": -117.22306, "state": "WA", "latitude": 47.81108, "timezone": -8}},{"type": "Feature", "geometry": {"type": "Point", "coordinates": [-121.73254, 47.483057]}, "properties": {"city": "North Bend", "zip": "98045", "dst": 1, "geopoint": [47.483057, -121.73254], "longitude": -121.73254, "state": "WA", "latitude": 47.483057, "timezone": -8}},{"type": "Feature", "geometry": {"type": "Point", "coordinates": [-121.83053, 47.530639]}, "properties": {"city": "Snoqualmie", "zip": "98065", "dst": 1, "geopoint": [47.530639, -121.83053], "longitude": -121.83053, "state": "WA", "latitude": 47.530639, "timezone": -8}},{"type": "Feature", "geometry": {"type": "Point", "coordinates": [-122.11068, 47.846083]}, "properties": {"city": "Snohomish", "zip": "98296", "dst": 1, "geopoint": [47.846083, -122.11068], "longitude": -122.11068, "state": "WA", "latitude": 47.846083, "timezone": -8}},{"type": "Feature", "geometry": {"type": "Point", "coordinates": [-117.57295, 46.447540000000004]}, "properties": {"city": "Pomeroy", "zip": "99347", "dst": 1, "geopoint": [46.447540000000004, -117.57295], "longitude": -117.57295, "state": "WA", "latitude": 46.447540000000004, "timezone": -8}},{"type": "Feature", "geometry": {"type": "Point", "coordinates": [-122.315, 47.397521]}, "properties": {"city": "Seattle", "zip": "98198", "dst": 1, "geopoint": [47.397521, -122.315], "longitude": -122.315, "state": "WA", "latitude": 47.397521, "timezone": -8}},{"type": "Feature", "geometry": {"type": "Point", "coordinates": [-119.13921, 47.458634]}, "properties": {"city": "Wilson Creek", "zip": "98860", "dst": 1, "geopoint": [47.458634, -119.13921], "longitude": -119.13921, "state": "WA", "latitude": 47.458634, "timezone": -8}},{"type": "Feature", "geometry": {"type": "Point", "coordinates": [-122.53051, 47.748780000000004]}, "properties": {"city": "Indianola", "zip": "98342", "dst": 1, "geopoint": [47.748780000000004, -122.53051], "longitude": -122.53051, "state": "WA", "latitude": 47.748780000000004, "timezone": -8}},{"type": "Feature", "geometry": {"type": "Point", "coordinates": [-121.19784, 45.726451]}, "properties": {"city": "Lyle", "zip": "98635", "dst": 1, "geopoint": [45.726451, -121.19784], "longitude": -121.19784, "state": "WA", "latitude": 45.726451, "timezone": -8}},{"type": "Feature", "geometry": {"type": "Point", "coordinates": [-119.90423, 47.63205]}, "properties": {"city": "Waterville", "zip": "98858", "dst": 1, "geopoint": [47.63205, -119.90423], "longitude": -119.90423, "state": "WA", "latitude": 47.63205, "timezone": -8}},{"type": "Feature", "geometry": {"type": "Point", "coordinates": [-117.67344, 47.595572]}, "properties": {"city": "Fairchild Air Force Base", "zip": "99011", "dst": 1, "geopoint": [47.595572, -117.67344], "longitude": -117.67344, "state": "WA", "latitude": 47.595572, "timezone": -8}},{"type": "Feature", "geometry": {"type": "Point", "coordinates": [-122.88271, 48.481655]}, "properties": {"city": "Lopez Island", "zip": "98261", "dst": 1, "geopoint": [48.481655, -122.88271], "longitude": -122.88271, "state": "WA", "latitude": 48.481655, "timezone": -8}},{"type": "Feature", "geometry": {"type": "Point", "coordinates": [-122.702393, 46.978118]}, "properties": {"city": "Olympia", "zip": "98599", "dst": 1, "geopoint": [46.978118, -122.702393], "longitude": -122.702393, "state": "WA", "latitude": 46.978118, "timezone": -8}},{"type": "Feature", "geometry": {"type": "Point", "coordinates": [-119.0672, 46.970666]}, "properties": {"city": "Warden", "zip": "98857", "dst": 1, "geopoint": [46.970666, -119.0672], "longitude": -119.0672, "state": "WA", "latitude": 46.970666, "timezone": -8}},{"type": "Feature", "geometry": {"type": "Point", "coordinates": [-122.34943, 47.458821]}, "properties": {"city": "Seattle", "zip": "98166", "dst": 1, "geopoint": [47.458821, -122.34943], "longitude": -122.34943, "state": "WA", "latitude": 47.458821, "timezone": -8}},{"type": "Feature", "geometry": {"type": "Point", "coordinates": [-122.113223, 47.066193]}, "properties": {"city": "Tacoma", "zip": "98460", "dst": 1, "geopoint": [47.066193, -122.113223], "longitude": -122.113223, "state": "WA", "latitude": 47.066193, "timezone": -8}},{"type": "Feature", "geometry": {"type": "Point", "coordinates": [-122.702393, 46.978118]}, "properties": {"city": "Olympia", "zip": "98508", "dst": 1, "geopoint": [46.978118, -122.702393], "longitude": -122.702393, "state": "WA", "latitude": 46.978118, "timezone": -8}},{"type": "Feature", "geometry": {"type": "Point", "coordinates": [-122.113223, 47.066193]}, "properties": {"city": "La Grande", "zip": "98348", "dst": 1, "geopoint": [47.066193, -122.113223], "longitude": -122.113223, "state": "WA", "latitude": 47.066193, "timezone": -8}},{"type": "Feature", "geometry": {"type": "Point", "coordinates": [-119.10456, 46.169982]}, "properties": {"city": "Kennewick", "zip": "99337", "dst": 1, "geopoint": [46.169982, -119.10456], "longitude": -119.10456, "state": "WA", "latitude": 46.169982, "timezone": -8}},{"type": "Feature", "geometry": {"type": "Point", "coordinates": [-122.01544, 46.75523]}, "properties": {"city": "Ashford", "zip": "98304", "dst": 1, "geopoint": [46.75523, -122.01544], "longitude": -122.01544, "state": "WA", "latitude": 46.75523, "timezone": -8}},{"type": "Feature", "geometry": {"type": "Point", "coordinates": [-122.62371, 47.58675]}, "properties": {"city": "Bremerton", "zip": "98310", "dst": 1, "geopoint": [47.58675, -122.62371], "longitude": -122.62371, "state": "WA", "latitude": 47.58675, "timezone": -8}},{"type": "Feature", "geometry": {"type": "Point", "coordinates": [-122.7599, 48.036882]}, "properties": {"city": "Port Hadlock", "zip": "98339", "dst": 1, "geopoint": [48.036882, -122.7599], "longitude": -122.7599, "state": "WA", "latitude": 48.036882, "timezone": -8}},{"type": "Feature", "geometry": {"type": "Point", "coordinates": [-122.88566, 46.150433]}, "properties": {"city": "Kelso", "zip": "98626", "dst": 1, "geopoint": [46.150433, -122.88566], "longitude": -122.88566, "state": "WA", "latitude": 46.150433, "timezone": -8}},{"type": "Feature", "geometry": {"type": "Point", "coordinates": [-122.4156, 47.212421]}, "properties": {"city": "Tacoma", "zip": "98404", "dst": 1, "geopoint": [47.212421, -122.4156], "longitude": -122.4156, "state": "WA", "latitude": 47.212421, "timezone": -8}},{"type": "Feature", "geometry": {"type": "Point", "coordinates": [-122.482076, 47.264577]}, "properties": {"city": "Tacoma", "zip": "98416", "dst": 1, "geopoint": [47.264577, -122.482076], "longitude": -122.482076, "state": "WA", "latitude": 47.264577, "timezone": -8}},{"type": "Feature", "geometry": {"type": "Point", "coordinates": [-121.14615, 45.859065]}, "properties": {"city": "Wahkiacus", "zip": "98670", "dst": 1, "geopoint": [45.859065, -121.14615], "longitude": -121.14615, "state": "WA", "latitude": 45.859065, "timezone": -8}},{"type": "Feature", "geometry": {"type": "Point", "coordinates": [-117.4124, 47.751674]}, "properties": {"city": "Spokane", "zip": "99218", "dst": 1, "geopoint": [47.751674, -117.4124], "longitude": -117.4124, "state": "WA", "latitude": 47.751674, "timezone": -8}},{"type": "Feature", "geometry": {"type": "Point", "coordinates": [-122.29411, 46.06517]}, "properties": {"city": "Cougar", "zip": "98616", "dst": 1, "geopoint": [46.06517, -122.29411], "longitude": -122.29411, "state": "WA", "latitude": 46.06517, "timezone": -8}},{"type": "Feature", "geometry": {"type": "Point", "coordinates": [-117.29833, 48.858518]}, "properties": {"city": "Metaline Falls", "zip": "99153", "dst": 1, "geopoint": [48.858518, -117.29833], "longitude": -117.29833, "state": "WA", "latitude": 48.858518, "timezone": -8}},{"type": "Feature", "geometry": {"type": "Point", "coordinates": [-122.36978, 47.740886]}, "properties": {"city": "Seattle", "zip": "98177", "dst": 1, "geopoint": [47.740886, -122.36978], "longitude": -122.36978, "state": "WA", "latitude": 47.740886, "timezone": -8}},{"type": "Feature", "geometry": {"type": "Point", "coordinates": [-122.0451, 47.106024]}, "properties": {"city": "Wilkeson", "zip": "98396", "dst": 1, "geopoint": [47.106024, -122.0451], "longitude": -122.0451, "state": "WA", "latitude": 47.106024, "timezone": -8}},{"type": "Feature", "geometry": {"type": "Point", "coordinates": [-122.51035, 45.604075]}, "properties": {"city": "Vancouver", "zip": "98683", "dst": 1, "geopoint": [45.604075, -122.51035], "longitude": -122.51035, "state": "WA", "latitude": 45.604075, "timezone": -8}},{"type": "Feature", "geometry": {"type": "Point", "coordinates": [-122.0348, 46.711036]}, "properties": {"city": "Mineral", "zip": "98355", "dst": 1, "geopoint": [46.711036, -122.0348], "longitude": -122.0348, "state": "WA", "latitude": 46.711036, "timezone": -8}},{"type": "Feature", "geometry": {"type": "Point", "coordinates": [-123.07563, 48.55113]}, "properties": {"city": "Friday Harbor", "zip": "98250", "dst": 1, "geopoint": [48.55113, -123.07563], "longitude": -123.07563, "state": "WA", "latitude": 48.55113, "timezone": -8}},{"type": "Feature", "geometry": {"type": "Point", "coordinates": [-123.2798, 46.637787]}, "properties": {"city": "Doty", "zip": "98539", "dst": 1, "geopoint": [46.637787, -123.2798], "longitude": -123.2798, "state": "WA", "latitude": 46.637787, "timezone": -8}},{"type": "Feature", "geometry": {"type": "Point", "coordinates": [-117.96015, 46.669207]}, "properties": {"city": "Hay", "zip": "99136", "dst": 1, "geopoint": [46.669207, -117.96015], "longitude": -117.96015, "state": "WA", "latitude": 46.669207, "timezone": -8}},{"type": "Feature", "geometry": {"type": "Point", "coordinates": [-117.472694, 47.951939]}, "properties": {"city": "Deer Park", "zip": "99066", "dst": 1, "geopoint": [47.951939, -117.472694], "longitude": -117.472694, "state": "WA", "latitude": 47.951939, "timezone": -8}},{"type": "Feature", "geometry": {"type": "Point", "coordinates": [-122.33068, 47.443756]}, "properties": {"city": "Seattle", "zip": "98148", "dst": 1, "geopoint": [47.443756, -122.33068], "longitude": -122.33068, "state": "WA", "latitude": 47.443756, "timezone": -8}},{"type": "Feature", "geometry": {"type": "Point", "coordinates": [-124.02626, 46.554]}, "properties": {"city": "Oysterville", "zip": "98641", "dst": 1, "geopoint": [46.554, -124.02626], "longitude": -124.02626, "state": "WA", "latitude": 46.554, "timezone": -8}},{"type": "Feature", "geometry": {"type": "Point", "coordinates": [-117.431742, 47.653568]}, "properties": {"city": "Spokane", "zip": "99220", "dst": 1, "geopoint": [47.653568, -117.431742], "longitude": -117.431742, "state": "WA", "latitude": 47.653568, "timezone": -8}},{"type": "Feature", "geometry": {"type": "Point", "coordinates": [-120.71558, 46.662006]}, "properties": {"city": "Cowiche", "zip": "98923", "dst": 1, "geopoint": [46.662006, -120.71558], "longitude": -120.71558, "state": "WA", "latitude": 46.662006, "timezone": -8}},{"type": "Feature", "geometry": {"type": "Point", "coordinates": [-122.8819, 47.014718]}, "properties": {"city": "Olympia", "zip": "98501", "dst": 1, "geopoint": [47.014718, -122.8819], "longitude": -122.8819, "state": "WA", "latitude": 47.014718, "timezone": -8}},{"type": "Feature", "geometry": {"type": "Point", "coordinates": [-119.28312, 47.417461]}, "properties": {"city": "Stratford", "zip": "98853", "dst": 1, "geopoint": [47.417461, -119.28312], "longitude": -119.28312, "state": "WA", "latitude": 47.417461, "timezone": -8}},{"type": "Feature", "geometry": {"type": "Point", "coordinates": [-117.30668, 47.668926]}, "properties": {"city": "Spokane", "zip": "99212", "dst": 1, "geopoint": [47.668926, -117.30668], "longitude": -117.30668, "state": "WA", "latitude": 47.668926, "timezone": -8}},{"type": "Feature", "geometry": {"type": "Point", "coordinates": [-122.418495, 47.308061]}, "properties": {"city": "Tacoma", "zip": "98442", "dst": 1, "geopoint": [47.308061, -122.418495], "longitude": -122.418495, "state": "WA", "latitude": 47.308061, "timezone": -8}},{"type": "Feature", "geometry": {"type": "Point", "coordinates": [-122.09356, 47.137872]}, "properties": {"city": "South Prairie", "zip": "98389", "dst": 1, "geopoint": [47.137872, -122.09356], "longitude": -122.09356, "state": "WA", "latitude": 47.137872, "timezone": -8}},{"type": "Feature", "geometry": {"type": "Point", "coordinates": [-122.59122, 47.854503]}, "properties": {"city": "Port Gamble", "zip": "98364", "dst": 1, "geopoint": [47.854503, -122.59122], "longitude": -122.59122, "state": "WA", "latitude": 47.854503, "timezone": -8}},{"type": "Feature", "geometry": {"type": "Point", "coordinates": [-123.07403, 47.33179]}, "properties": {"city": "Union", "zip": "98592", "dst": 1, "geopoint": [47.33179, -123.07403], "longitude": -123.07403, "state": "WA", "latitude": 47.33179, "timezone": -8}},{"type": "Feature", "geometry": {"type": "Point", "coordinates": [-119.00713, 47.947097]}, "properties": {"city": "Grand Coulee", "zip": "99133", "dst": 1, "geopoint": [47.947097, -119.00713], "longitude": -119.00713, "state": "WA", "latitude": 47.947097, "timezone": -8}},{"type": "Feature", "geometry": {"type": "Point", "coordinates": [-121.803388, 47.432251]}, "properties": {"city": "Seattle", "zip": "98171", "dst": 1, "geopoint": [47.432251, -121.803388], "longitude": -121.803388, "state": "WA", "latitude": 47.432251, "timezone": -8}},{"type": "Feature", "geometry": {"type": "Point", "coordinates": [-119.74507, 46.208571]}, "properties": {"city": "Prosser", "zip": "99350", "dst": 1, "geopoint": [46.208571, -119.74507], "longitude": -119.74507, "state": "WA", "latitude": 46.208571, "timezone": -8}},{"type": "Feature", "geometry": {"type": "Point", "coordinates": [-121.803388, 47.432251]}, "properties": {"city": "Kent", "zip": "98064", "dst": 1, "geopoint": [47.432251, -121.803388], "longitude": -121.803388, "state": "WA", "latitude": 47.432251, "timezone": -8}},{"type": "Feature", "geometry": {"type": "Point", "coordinates": [-122.24664, 47.497971]}, "properties": {"city": "Seattle", "zip": "98178", "dst": 1, "geopoint": [47.497971, -122.24664], "longitude": -122.24664, "state": "WA", "latitude": 47.497971, "timezone": -8}},{"type": "Feature", "geometry": {"type": "Point", "coordinates": [-124.15607, 46.983877]}, "properties": {"city": "Ocean Shores", "zip": "98569", "dst": 1, "geopoint": [46.983877, -124.15607], "longitude": -124.15607, "state": "WA", "latitude": 46.983877, "timezone": -8}},{"type": "Feature", "geometry": {"type": "Point", "coordinates": [-124.30909, 48.066605]}, "properties": {"city": "Beaver", "zip": "98305", "dst": 1, "geopoint": [48.066605, -124.30909], "longitude": -124.30909, "state": "WA", "latitude": 48.066605, "timezone": -8}},{"type": "Feature", "geometry": {"type": "Point", "coordinates": [-120.5614, 47.541723]}, "properties": {"city": "Dryden", "zip": "98821", "dst": 1, "geopoint": [47.541723, -120.5614], "longitude": -120.5614, "state": "WA", "latitude": 47.541723, "timezone": -8}},{"type": "Feature", "geometry": {"type": "Point", "coordinates": [-122.54535, 47.553289]}, "properties": {"city": "Manchester", "zip": "98353", "dst": 1, "geopoint": [47.553289, -122.54535], "longitude": -122.54535, "state": "WA", "latitude": 47.553289, "timezone": -8}},{"type": "Feature", "geometry": {"type": "Point", "coordinates": [-121.803388, 47.432251]}, "properties": {"city": "Seattle", "zip": "98184", "dst": 1, "geopoint": [47.432251, -121.803388], "longitude": -121.803388, "state": "WA", "latitude": 47.432251, "timezone": -8}},{"type": "Feature", "geometry": {"type": "Point", "coordinates": [-123.98121, 46.737458]}, "properties": {"city": "Tokeland", "zip": "98590", "dst": 1, "geopoint": [46.737458, -123.98121], "longitude": -123.98121, "state": "WA", "latitude": 46.737458, "timezone": -8}},{"type": "Feature", "geometry": {"type": "Point", "coordinates": [-122.63479, 47.569167]}, "properties": {"city": "Bremerton", "zip": "98337", "dst": 1, "geopoint": [47.569167, -122.63479], "longitude": -122.63479, "state": "WA", "latitude": 47.569167, "timezone": -8}},{"type": "Feature", "geometry": {"type": "Point", "coordinates": [-117.793734, 47.646148]}, "properties": {"city": "Spokane", "zip": "99209", "dst": 1, "geopoint": [47.646148, -117.793734], "longitude": -117.793734, "state": "WA", "latitude": 47.646148, "timezone": -8}},{"type": "Feature", "geometry": {"type": "Point", "coordinates": [-121.803388, 47.432251]}, "properties": {"city": "Bothell", "zip": "98082", "dst": 1, "geopoint": [47.432251, -121.803388], "longitude": -121.803388, "state": "WA", "latitude": 47.432251, "timezone": -8}},{"type": "Feature", "geometry": {"type": "Point", "coordinates": [-122.02065, 47.572401]}, "properties": {"city": "Issaquah", "zip": "98029", "dst": 1, "geopoint": [47.572401, -122.02065], "longitude": -122.02065, "state": "WA", "latitude": 47.572401, "timezone": -8}},{"type": "Feature", "geometry": {"type": "Point", "coordinates": [-117.15116, 47.648693]}, "properties": {"city": "Greenacres", "zip": "99016", "dst": 1, "geopoint": [47.648693, -117.15116], "longitude": -117.15116, "state": "WA", "latitude": 47.648693, "timezone": -8}},{"type": "Feature", "geometry": {"type": "Point", "coordinates": [-121.803388, 47.432251]}, "properties": {"city": "Renton", "zip": "98057", "dst": 1, "geopoint": [47.432251, -121.803388], "longitude": -121.803388, "state": "WA", "latitude": 47.432251, "timezone": -8}},{"type": "Feature", "geometry": {"type": "Point", "coordinates": [-122.50433, 47.28392]}, "properties": {"city": "Tacoma", "zip": "98407", "dst": 1, "geopoint": [47.28392, -122.50433], "longitude": -122.50433, "state": "WA", "latitude": 47.28392, "timezone": -8}},{"type": "Feature", "geometry": {"type": "Point", "coordinates": [-122.63419, 45.712623]}, "properties": {"city": "Vancouver", "zip": "98686", "dst": 1, "geopoint": [45.712623, -122.63419], "longitude": -122.63419, "state": "WA", "latitude": 45.712623, "timezone": -8}},{"type": "Feature", "geometry": {"type": "Point", "coordinates": [-118.51457, 48.977629]}, "properties": {"city": "Danville", "zip": "99121", "dst": 1, "geopoint": [48.977629, -118.51457], "longitude": -118.51457, "state": "WA", "latitude": 48.977629, "timezone": -8}},{"type": "Feature", "geometry": {"type": "Point", "coordinates": [-122.01479, 47.317802]}, "properties": {"city": "Black Diamond", "zip": "98010", "dst": 1, "geopoint": [47.317802, -122.01479], "longitude": -122.01479, "state": "WA", "latitude": 47.317802, "timezone": -8}},{"type": "Feature", "geometry": {"type": "Point", "coordinates": [-121.93734, 47.860245]}, "properties": {"city": "Monroe", "zip": "98272", "dst": 1, "geopoint": [47.860245, -121.93734], "longitude": -121.93734, "state": "WA", "latitude": 47.860245, "timezone": -8}},{"type": "Feature", "geometry": {"type": "Point", "coordinates": [-121.88496, 47.430704]}, "properties": {"city": "Hobart", "zip": "98025", "dst": 1, "geopoint": [47.430704, -121.88496], "longitude": -121.88496, "state": "WA", "latitude": 47.430704, "timezone": -8}},{"type": "Feature", "geometry": {"type": "Point", "coordinates": [-121.78899, 47.86527]}, "properties": {"city": "Sultan", "zip": "98294", "dst": 1, "geopoint": [47.86527, -121.78899], "longitude": -121.78899, "state": "WA", "latitude": 47.86527, "timezone": -8}},{"type": "Feature", "geometry": {"type": "Point", "coordinates": [-122.91972, 48.672312]}, "properties": {"city": "Eastsound", "zip": "98245", "dst": 1, "geopoint": [48.672312, -122.91972], "longitude": -122.91972, "state": "WA", "latitude": 48.672312, "timezone": -8}},{"type": "Feature", "geometry": {"type": "Point", "coordinates": [-124.1974, 47.216861]}, "properties": {"city": "Pacific Beach", "zip": "98571", "dst": 1, "geopoint": [47.216861, -124.1974], "longitude": -124.1974, "state": "WA", "latitude": 47.216861, "timezone": -8}},{"type": "Feature", "geometry": {"type": "Point", "coordinates": [-121.803388, 47.432251]}, "properties": {"city": "Bothell", "zip": "98041", "dst": 1, "geopoint": [47.432251, -121.803388], "longitude": -121.803388, "state": "WA", "latitude": 47.432251, "timezone": -8}},{"type": "Feature", "geometry": {"type": "Point", "coordinates": [-121.803388, 47.432251]}, "properties": {"city": "Seattle", "zip": "98190", "dst": 1, "geopoint": [47.432251, -121.803388], "longitude": -121.803388, "state": "WA", "latitude": 47.432251, "timezone": -8}},{"type": "Feature", "geometry": {"type": "Point", "coordinates": [-121.803388, 47.432251]}, "properties": {"city": "Seattle", "zip": "98195", "dst": 1, "geopoint": [47.432251, -121.803388], "longitude": -121.803388, "state": "WA", "latitude": 47.432251, "timezone": -8}},{"type": "Feature", "geometry": {"type": "Point", "coordinates": [-118.55652, 46.648121]}, "properties": {"city": "Kahlotus", "zip": "99335", "dst": 1, "geopoint": [46.648121, -118.55652], "longitude": -118.55652, "state": "WA", "latitude": 46.648121, "timezone": -8}},{"type": "Feature", "geometry": {"type": "Point", "coordinates": [-117.08133, 47.222328]}, "properties": {"city": "Tekoa", "zip": "99033", "dst": 1, "geopoint": [47.222328, -117.08133], "longitude": -117.08133, "state": "WA", "latitude": 47.222328, "timezone": -8}},{"type": "Feature", "geometry": {"type": "Point", "coordinates": [-119.45276, 48.528793]}, "properties": {"city": "Riverside", "zip": "98849", "dst": 1, "geopoint": [48.528793, -119.45276], "longitude": -119.45276, "state": "WA", "latitude": 48.528793, "timezone": -8}},{"type": "Feature", "geometry": {"type": "Point", "coordinates": [-117.431742, 47.653568]}, "properties": {"city": "Spokane", "zip": "99251", "dst": 1, "geopoint": [47.653568, -117.431742], "longitude": -117.431742, "state": "WA", "latitude": 47.653568, "timezone": -8}},{"type": "Feature", "geometry": {"type": "Point", "coordinates": [-122.32095, 48.900256]}, "properties": {"city": "Everson", "zip": "98247", "dst": 1, "geopoint": [48.900256, -122.32095], "longitude": -122.32095, "state": "WA", "latitude": 48.900256, "timezone": -8}},{"type": "Feature", "geometry": {"type": "Point", "coordinates": [-122.20308, 47.618371]}, "properties": {"city": "Bellevue", "zip": "98004", "dst": 1, "geopoint": [47.618371, -122.20308], "longitude": -122.20308, "state": "WA", "latitude": 47.618371, "timezone": -8}},{"type": "Feature", "geometry": {"type": "Point", "coordinates": [-122.30308, 47.716648]}, "properties": {"city": "Seattle", "zip": "98125", "dst": 1, "geopoint": [47.716648, -122.30308], "longitude": -122.30308, "state": "WA", "latitude": 47.716648, "timezone": -8}},{"type": "Feature", "geometry": {"type": "Point", "coordinates": [-122.24432, 48.371026]}, "properties": {"city": "Mount Vernon", "zip": "98274", "dst": 1, "geopoint": [48.371026, -122.24432], "longitude": -122.24432, "state": "WA", "latitude": 48.371026, "timezone": -8}},{"type": "Feature", "geometry": {"type": "Point", "coordinates": [-122.34166, 47.671346]}, "properties": {"city": "Seattle", "zip": "98103", "dst": 1, "geopoint": [47.671346, -122.34166], "longitude": -122.34166, "state": "WA", "latitude": 47.671346, "timezone": -8}},{"type": "Feature", "geometry": {"type": "Point", "coordinates": [-118.69498, 48.080515]}, "properties": {"city": "Keller", "zip": "99140", "dst": 1, "geopoint": [48.080515, -118.69498], "longitude": -118.69498, "state": "WA", "latitude": 48.080515, "timezone": -8}},{"type": "Feature", "geometry": {"type": "Point", "coordinates": [-119.54481, 47.880616]}, "properties": {"city": "Mansfield", "zip": "98830", "dst": 1, "geopoint": [47.880616, -119.54481], "longitude": -119.54481, "state": "WA", "latitude": 47.880616, "timezone": -8}},{"type": "Feature", "geometry": {"type": "Point", "coordinates": [-118.11029, 48.406582]}, "properties": {"city": "Rice", "zip": "99167", "dst": 1, "geopoint": [48.406582, -118.11029], "longitude": -118.11029, "state": "WA", "latitude": 48.406582, "timezone": -8}},{"type": "Feature", "geometry": {"type": "Point", "coordinates": [-119.67175, 46.922079]}, "properties": {"city": "Royal City", "zip": "99357", "dst": 1, "geopoint": [46.922079, -119.67175], "longitude": -119.67175, "state": "WA", "latitude": 46.922079, "timezone": -8}},{"type": "Feature", "geometry": {"type": "Point", "coordinates": [-124.08111, 46.781978]}, "properties": {"city": "Grayland", "zip": "98547", "dst": 1, "geopoint": [46.781978, -124.08111], "longitude": -124.08111, "state": "WA", "latitude": 46.781978, "timezone": -8}},{"type": "Feature", "geometry": {"type": "Point", "coordinates": [-121.5395, 45.981582]}, "properties": {"city": "Trout Lake", "zip": "98650", "dst": 1, "geopoint": [45.981582, -121.5395], "longitude": -121.5395, "state": "WA", "latitude": 45.981582, "timezone": -8}},{"type": "Feature", "geometry": {"type": "Point", "coordinates": [-122.66162, 45.647667]}, "properties": {"city": "Vancouver", "zip": "98663", "dst": 1, "geopoint": [45.647667, -122.66162], "longitude": -122.66162, "state": "WA", "latitude": 45.647667, "timezone": -8}},{"type": "Feature", "geometry": {"type": "Point", "coordinates": [-121.43163, 48.499159]}, "properties": {"city": "Marblemount", "zip": "98267", "dst": 1, "geopoint": [48.499159, -121.43163], "longitude": -121.43163, "state": "WA", "latitude": 48.499159, "timezone": -8}},{"type": "Feature", "geometry": {"type": "Point", "coordinates": [-117.68812, 47.583754]}, "properties": {"city": "Medical Lake", "zip": "99022", "dst": 1, "geopoint": [47.583754, -117.68812], "longitude": -117.68812, "state": "WA", "latitude": 47.583754, "timezone": -8}},{"type": "Feature", "geometry": {"type": "Point", "coordinates": [-122.71293, 47.564437]}, "properties": {"city": "Bremerton", "zip": "98312", "dst": 1, "geopoint": [47.564437, -122.71293], "longitude": -122.71293, "state": "WA", "latitude": 47.564437, "timezone": -8}},{"type": "Feature", "geometry": {"type": "Point", "coordinates": [-122.520347, 45.801586]}, "properties": {"city": "Vancouver", "zip": "98687", "dst": 1, "geopoint": [45.801586, -122.520347], "longitude": -122.520347, "state": "WA", "latitude": 45.801586, "timezone": -8}},{"type": "Feature", "geometry": {"type": "Point", "coordinates": [-122.29514, 46.562676]}, "properties": {"city": "Morton", "zip": "98356", "dst": 1, "geopoint": [46.562676, -122.29514], "longitude": -122.29514, "state": "WA", "latitude": 46.562676, "timezone": -8}},{"type": "Feature", "geometry": {"type": "Point", "coordinates": [-121.803388, 47.432251]}, "properties": {"city": "Federal Way", "zip": "98063", "dst": 1, "geopoint": [47.432251, -121.803388], "longitude": -121.803388, "state": "WA", "latitude": 47.432251, "timezone": -8}},{"type": "Feature", "geometry": {"type": "Point", "coordinates": [-122.1887, 47.196364]}, "properties": {"city": "Sumner", "zip": "98390", "dst": 1, "geopoint": [47.196364, -122.1887], "longitude": -122.1887, "state": "WA", "latitude": 47.196364, "timezone": -8}},{"type": "Feature", "geometry": {"type": "Point", "coordinates": [-123.05047, 48.99201]}, "properties": {"city": "Point Roberts", "zip": "98281", "dst": 1, "geopoint": [48.99201, -123.05047], "longitude": -123.05047, "state": "WA", "latitude": 48.99201, "timezone": -8}},{"type": "Feature", "geometry": {"type": "Point", "coordinates": [-118.13247, 46.866805]}, "properties": {"city": "Benge", "zip": "99105", "dst": 1, "geopoint": [46.866805, -118.13247], "longitude": -118.13247, "state": "WA", "latitude": 46.866805, "timezone": -8}},{"type": "Feature", "geometry": {"type": "Point", "coordinates": [-122.90699, 46.580105]}, "properties": {"city": "Napavine", "zip": "98565", "dst": 1, "geopoint": [46.580105, -122.90699], "longitude": -122.90699, "state": "WA", "latitude": 46.580105, "timezone": -8}},{"type": "Feature", "geometry": {"type": "Point", "coordinates": [-121.803388, 47.432251]}, "properties": {"city": "Bellevue", "zip": "98009", "dst": 1, "geopoint": [47.432251, -121.803388], "longitude": -121.803388, "state": "WA", "latitude": 47.432251, "timezone": -8}},{"type": "Feature", "geometry": {"type": "Point", "coordinates": [-122.113223, 47.066193]}, "properties": {"city": "Tacoma", "zip": "98434", "dst": 1, "geopoint": [47.066193, -122.113223], "longitude": -122.113223, "state": "WA", "latitude": 47.066193, "timezone": -8}},{"type": "Feature", "geometry": {"type": "Point", "coordinates": [-121.803388, 47.432251]}, "properties": {"city": "Seattle", "zip": "98151", "dst": 1, "geopoint": [47.432251, -121.803388], "longitude": -121.803388, "state": "WA", "latitude": 47.432251, "timezone": -8}},{"type": "Feature", "geometry": {"type": "Point", "coordinates": [-117.282483, 47.656726]},